entityCode,entityName,municipalityCode,municipalityName,avgLat,avgLon,popCenterLat,popCenterLon,13-04-20,14-04-20,15-04-20,16-04-20,17-04-20,18-04-20,19-04-20,20-04-20,21-04-20,22-04-20,23-04-20,24-04-20,25-04-20,26-04-20,27-04-20,28-04-20,29-04-20,30-04-20,01-05-20,02-05-20,03-05-20,04-05-20
10,Durango,001,Canatlán,24.518650989399273,-104.80688737455826,24.527263,-104.778374,0,0,0,0,0,0,0,0,0,0,0,0,0,0,0,0,0,0,0,0,0,0
10,Durango,002,Canelas,25.08884252071005,-106.50909541420124,25.122971,-106.545633,0,0,0,0,0,0,0,0,0,0,0,0,0,0,0,0,0,0,0,0,0,0
10,Durango,003,Coneto de Comonfort,25.02949464150943,-104.73442762264149,24.978333,-104.720278,0,0,0,0,0,0,0,0,0,0,0,0,0,0,0,0,0,0,0,0,0,0
10,Durango,004,Cuencamé,24.63738147692308,-103.73795639230767,24.870939,-103.698462,0,0,0,0,0,0,0,0,0,0,0,0,0,0,0,0,0,0,0,0,0,0
10,Durango,005,Durango,24.02865392895341,-104.67051646676852,24.023988,-104.670194,0,0,0,0,0,0,0,0,0,0,0,0,0,0,0,0,0,1,1,1,1,1
10,Durango,006,General Simón Bolívar,24.90207288679246,-103.26394381132074,24.689074,-103.225975,0,0,0,0,0,0,0,0,0,0,0,0,0,0,0,0,0,0,0,0,0,0
10,Durango,007,Gómez Palacio,25.708557481262325,-103.47727098816569,25.570107,-103.496417,4,3,4,4,4,4,4,4,4,4,4,4,4,4,4,4,4,4,4,4,4,4
10,Durango,008,Guadalupe Victoria,24.432509567010317,-104.09145286597935,24.446433,-104.12366,0,0,0,0,0,0,0,0,0,1,1,1,1,1,1,1,1,1,1,1,1,1
10,Durango,009,Guanaceví,25.99756141538462,-106.10840219076917,25.931662,-105.954432,0,0,0,0,0,0,0,0,0,0,0,0,0,0,0,0,0,0,0,0,0,0
10,Durango,010,Hidalgo,26.022030991228068,-104.82947483333332,26.204513,-105.083298,0,0,0,0,0,0,0,0,0,0,0,0,0,0,0,0,0,0,0,0,0,0
10,Durango,011,Indé,25.76297677777778,-105.0333736049383,25.912021,-105.223791,0,0,0,0,0,0,0,0,0,0,0,0,0,0,0,0,0,0,0,0,0,0
10,Durango,012,Lerdo,25.485598615384607,-103.60801726819122,25.536552,-103.524849,0,0,0,0,0,0,0,0,0,0,0,0,0,0,0,0,0,0,0,0,0,0
10,Durango,013,Mapimí,26.18142642105262,-104.04970392105261,25.889745,-103.624464,0,0,0,0,0,0,0,0,0,0,0,0,0,0,0,0,0,0,0,0,0,0
10,Durango,014,Mezquital,22.880314717359056,-104.55235262240363,23.47353,-104.396744,0,0,0,0,0,0,0,0,0,0,0,0,0,0,0,0,0,0,0,0,0,0
10,Durango,015,Nazas,25.239824910256406,-104.09292998717942,25.227777,-104.113803,0,0,0,0,0,0,0,0,0,0,0,0,0,0,0,0,0,0,0,0,0,0
10,Durango,016,Nombre de Dios,23.835613788135593,-104.16917603389831,23.848211,-104.244705,0,0,0,0,0,0,0,0,0,0,0,0,0,0,0,0,0,0,0,0,0,0
10,Durango,017,Ocampo,26.555624773684226,-105.76466057368425,26.400997,-105.387959,0,0,0,0,0,0,0,0,0,0,0,0,0,0,0,0,0,0,0,0,0,0
10,Durango,018,El Oro,25.69809729166666,-105.27389466666664,25.949324,-105.364866,0,0,0,0,0,0,0,0,0,0,0,0,0,0,0,0,0,0,0,0,0,0
10,Durango,019,Otáez,24.701481547169806,-106.015747245283,24.698689,-105.994058,0,0,0,0,0,0,0,0,0,0,0,0,0,0,0,0,0,0,0,0,0,0
10,Durango,020,Pánuco de Coronado,24.421533281249996,-104.33393578124999,24.401024,-104.319264,0,0,0,0,0,0,0,0,0,0,0,0,0,0,0,0,0,0,0,0,0,0
10,Durango,021,Peñón Blanco,24.759816233009712,-104.01949061165045,24.792509,-104.034267,0,0,0,0,0,0,0,0,0,0,0,0,0,0,0,0,0,0,0,0,0,0
10,Durango,022,Poanas,23.975204058823532,-104.04768347058824,23.975092,-104.044136,0,0,0,0,0,0,0,0,0,0,0,0,0,0,0,0,0,0,0,0,0,0
10,Durango,023,Pueblo Nuevo,23.4215576062271,-105.34431586263722,23.778151,-105.360192,0,0,0,0,0,0,0,0,0,0,0,0,0,0,0,0,0,0,0,0,0,0
10,Durango,024,Rodeo,25.175598230769225,-104.56350064615384,25.180719,-104.560444,0,0,0,0,0,0,0,0,0,0,0,0,0,0,0,0,0,0,0,0,0,0
10,Durango,025,San Bernardo,26.170224990909094,-105.66230677272722,26.000787,-105.523257,0,0,0,0,0,0,0,0,0,0,0,0,0,0,0,0,0,0,0,0,0,0
10,Durango,026,San Dimas,24.205649498148162,-105.7560759981481,24.102182,-105.931245,0,0,0,0,0,0,0,0,0,0,0,0,0,0,0,0,0,0,0,0,0,0
10,Durango,027,San Juan de Guadalupe,24.59473905633803,-102.69877456338028,24.630853,-102.782055,0,0,0,0,0,0,0,0,0,0,0,0,0,0,0,0,0,0,0,0,0,0
10,Durango,028,San Juan del Río,24.774471220183475,-104.50057078899086,24.778255,-104.459226,0,0,0,0,0,0,0,0,0,0,0,0,0,0,0,0,0,0,0,0,0,0
10,Durango,029,San Luis del Cordero,25.381756187500002,-104.27946175000001,25.417649,-104.277786,0,0,0,0,0,0,0,0,0,0,0,0,0,0,0,0,0,0,0,0,0,0
10,Durango,030,San Pedro del Gallo,25.5978568030303,-104.38635440909096,25.565864,-104.292834,0,0,0,0,0,0,0,0,0,0,0,0,0,0,0,0,0,0,0,0,0,0
10,Durango,031,Santa Clara,24.50301688461538,-103.40472238461537,24.475444,-103.357222,0,0,0,0,0,0,0,0,0,0,0,0,0,0,0,0,0,0,0,0,0,0
10,Durango,032,Santiago Papasquiaro,24.97548432075469,-105.69965758254719,25.03908,-105.420945,0,0,0,0,0,0,0,0,0,0,0,0,0,0,0,0,0,0,0,0,0,0
10,Durango,033,Súchil,23.433072952380957,-104.14932239682544,23.622163,-103.92187,0,0,0,0,0,0,0,0,0,0,0,0,0,0,0,0,0,0,0,0,0,0
10,Durango,034,Tamazula,25.04923714319252,-106.76663348239448,24.970316,-106.966602,0,0,0,0,0,0,0,0,0,0,0,0,0,0,0,0,0,0,0,0,0,0
10,Durango,035,Tepehuanes,25.47755767673715,-106.20673080362542,25.343209,-105.723002,0,0,0,0,0,0,0,0,0,0,0,0,0,0,0,0,0,0,0,0,0,0
10,Durango,036,Tlahualilo,26.062933749999996,-103.53504272297305,26.107386,-103.439236,0,0,0,0,0,0,0,0,0,0,0,0,1,1,1,1,1,1,1,1,1,1
10,Durango,037,Topia,25.232002196923087,-106.66516554153849,25.209023,-106.571196,0,0,0,0,0,0,0,0,0,0,0,0,0,0,0,0,0,0,0,0,0,0
10,Durango,038,Vicente Guerrero,23.722162857142855,-103.97995953571429,23.731111,-103.987778,0,0,0,0,0,0,0,0,0,0,0,0,0,0,0,0,0,0,0,0,0,0
10,Durango,039,Nuevo Ideal,24.878900283236998,-105.02123307514456,24.888313,-105.074205,0,0,0,0,0,0,0,0,0,0,0,0,0,0,0,0,0,0,0,0,0,0
11,Guanajuato,001,Abasolo,20.504339916905444,-101.53762803438387,20.4509,-101.528361,0,0,0,0,0,0,0,0,0,0,0,0,0,0,0,0,0,0,0,0,0,0
11,Guanajuato,002,Acámbaro,20.059091377622394,-100.74082724475527,20.03538,-100.719326,0,0,0,0,1,1,1,1,1,1,2,2,2,3,3,3,3,3,3,3,3,3
11,Guanajuato,003,San Miguel de Allende,20.943061004687497,-100.71016620625001,20.904013,-100.713381,0,0,0,0,0,0,0,0,0,0,0,0,0,0,0,0,0,0,0,0,0,0
11,Guanajuato,004,Apaseo el Alto,20.427521136094676,-100.56747494082835,20.457171,-100.621626,0,0,0,0,0,0,0,0,0,0,0,0,0,0,0,0,0,0,0,0,0,0
11,Guanajuato,005,Apaseo el Grande,20.552402175213675,-100.63630442307688,20.545284,-100.688217,0,0,0,0,0,0,0,0,0,0,0,0,0,0,0,0,0,0,0,0,0,0
11,Guanajuato,006,Atarjea,21.244011589743593,-99.81059551282051,21.315183,-99.833228,0,0,0,0,0,0,0,0,0,0,0,0,0,0,0,0,0,0,0,0,0,0
11,Guanajuato,007,Celaya,20.53578004338398,-100.80676976789589,20.521524,-100.813573,1,1,1,1,1,1,1,1,1,1,2,3,3,3,3,3,3,4,5,5,6,6
11,Guanajuato,008,Manuel Doblado,20.72049111614731,-101.85460918413602,20.727518,-101.95279,0,0,0,0,0,0,0,0,0,0,0,0,0,0,0,0,0,0,0,0,0,0
11,Guanajuato,009,Comonfort,20.728349080213917,-100.78481564705885,20.720048,-100.761202,0,0,0,0,0,0,0,0,0,0,0,0,0,0,0,0,0,0,0,0,0,0
11,Guanajuato,010,Coroneo,20.21193430769231,-100.37489838461539,20.198611,-100.364444,0,0,0,0,0,0,0,0,0,0,0,0,0,0,0,0,0,0,0,0,0,0
11,Guanajuato,011,Cortazar,20.469468256830595,-100.96349760109291,20.483506,-100.963729,0,0,0,0,0,0,0,0,0,0,1,1,1,1,1,1,1,1,1,1,2,2
11,Guanajuato,012,Cuerámaro,20.620115026548678,-101.6603649557522,20.626478,-101.670386,0,0,0,0,0,0,0,0,0,0,0,0,0,0,0,0,0,0,0,0,0,0
11,Guanajuato,013,Doctor Mora,21.13858774117647,-100.36144441176471,21.14264,-100.318949,0,0,0,0,0,0,0,0,0,0,0,0,0,0,0,0,0,0,0,0,0,0
11,Guanajuato,014,Dolores Hidalgo Cuna de la Independencia Nacional,21.16065200798723,-100.8990350447285,21.1592,-100.917236,0,0,0,0,0,0,0,0,0,0,0,0,0,0,0,0,0,0,0,0,0,0
11,Guanajuato,015,Guanajuato,20.999662678200686,-101.26727419723183,21.016098,-101.253621,1,1,1,1,1,1,1,1,1,1,1,1,1,1,1,1,1,2,2,2,2,2
11,Guanajuato,016,Huanímaro,20.35815883018867,-101.5012789056604,20.368274,-101.496867,0,0,0,0,0,0,0,0,0,0,0,0,0,0,0,0,0,0,0,0,0,0
11,Guanajuato,017,Irapuato,20.674654882978736,-101.37091610106395,20.672801,-101.348117,0,0,0,0,0,0,0,0,0,0,0,0,0,0,0,0,0,0,0,0,0,1
11,Guanajuato,018,Jaral del Progreso,20.35740007246377,-101.05190371014491,20.376517,-101.063975,0,0,0,0,0,0,0,0,0,0,0,0,0,0,0,0,0,0,0,1,1,1
11,Guanajuato,019,Jerécuaro,20.205130641414137,-100.51029127272724,20.150034,-100.510528,0,0,0,0,0,0,0,0,0,0,0,0,0,0,0,0,0,0,0,0,0,0
11,Guanajuato,020,León,21.09015471056439,-101.6453374848046,21.121972,-101.6832,0,0,0,0,0,0,0,0,0,0,0,1,2,2,2,2,2,2,2,2,2,3
11,Guanajuato,021,Moroleón,20.09795522222223,-101.23164999999999,20.13187,-101.189209,0,0,0,0,0,0,0,0,0,0,0,1,1,1,1,1,1,1,2,2,2,2
11,Guanajuato,022,Ocampo,21.601678492227986,-101.4683264870466,21.648492,-101.478016,0,0,0,0,0,0,0,0,0,0,0,0,0,0,0,0,0,0,0,0,0,0
11,Guanajuato,023,Pénjamo,20.405065606907886,-101.80366422697375,20.431795,-101.725044,0,0,0,0,0,1,1,1,1,1,1,1,1,1,1,1,1,1,1,1,1,1
11,Guanajuato,024,Pueblo Nuevo,20.546329848484845,-101.36375753030302,20.525957,-101.370847,0,0,0,0,0,0,0,0,0,0,0,0,0,0,0,0,0,0,0,0,0,0
11,Guanajuato,025,Purísima del Rincón,20.954422448275864,-101.90562655862072,21.029579,-101.878099,0,0,0,0,0,0,0,0,0,0,0,0,0,0,0,0,0,0,0,0,0,0
11,Guanajuato,026,Romita,20.841965682352935,-101.56161794999994,20.871215,-101.517117,0,0,0,0,0,0,0,0,0,0,0,0,1,1,1,1,1,1,1,1,1,1
11,Guanajuato,027,Salamanca,20.586494637149034,-101.17563243412528,20.568681,-101.199915,3,3,3,4,4,5,5,5,5,5,6,6,6,6,6,6,6,6,6,6,6,6
11,Guanajuato,028,Salvatierra,20.21392311111111,-100.90491592857141,20.216118,-100.88136,0,0,0,0,0,0,0,0,0,0,0,0,0,0,1,1,1,1,1,1,1,1
11,Guanajuato,029,San Diego de la Unión,21.40039734033613,-100.80881521008412,21.466387,-100.873316,0,0,0,0,0,0,0,0,0,0,0,0,0,0,0,0,0,0,0,0,0,0
11,Guanajuato,030,San Felipe,21.4579637952899,-101.24560098369565,21.479336,-101.215945,0,0,0,0,0,0,0,0,0,0,0,0,0,0,0,0,0,0,0,0,0,0
11,Guanajuato,031,San Francisco del Rincón,20.941408320158086,-101.79326347826085,21.018681,-101.858518,0,0,0,0,0,0,0,0,0,0,0,0,0,0,0,0,0,0,0,0,0,0
11,Guanajuato,032,San José Iturbide,21.031057318996428,-100.41273569175627,21.000822,-100.38572,0,0,0,0,0,0,0,0,0,0,0,0,0,0,0,0,0,0,0,0,0,0
11,Guanajuato,033,San Luis de la Paz,21.35918742067736,-100.5011536078432,21.298816,-100.515126,0,0,0,0,0,0,0,0,0,0,0,0,0,0,0,0,1,1,1,1,2,2
11,Guanajuato,034,Santa Catarina,21.149386851063824,-100.06988027659575,21.139878,-100.066913,0,0,0,0,0,0,0,0,0,0,0,0,0,0,0,0,0,0,0,0,0,0
11,Guanajuato,035,Santa Cruz de Juventino Rosas,20.636121373333328,-100.98006213333333,20.6432,-100.994037,0,0,0,0,0,0,0,0,0,0,0,0,0,0,0,0,0,0,0,0,1,1
11,Guanajuato,036,Santiago Maravatío,20.163339999999998,-101.00206613333333,20.172407,-100.995226,0,0,0,0,0,0,0,0,0,0,0,0,0,0,0,0,0,0,0,0,0,0
11,Guanajuato,037,Silao de la Victoria,20.940155452380957,-101.4511536071429,20.94445,-101.426216,0,0,0,0,0,0,0,0,0,0,1,1,1,1,1,1,1,1,1,1,1,1
11,Guanajuato,038,Tarandacuao,20.001713970588238,-100.5310599117647,20.003968,-100.516329,0,0,0,0,0,0,0,0,0,0,0,0,0,0,0,0,0,0,0,0,0,0
11,Guanajuato,039,Tarimoro,20.2987990614035,-100.75883892982456,20.288541,-100.755942,0,0,0,0,0,0,0,0,0,0,0,0,0,0,0,0,0,0,0,0,0,0
11,Guanajuato,040,Tierra Blanca,21.033060481012658,-100.15608975949365,21.100003,-100.159154,0,0,0,0,0,0,0,0,0,0,0,0,0,0,0,0,0,0,0,0,0,0
11,Guanajuato,041,Uriangato,20.109567087719295,-101.1589179473684,20.141012,-101.178051,0,0,0,0,0,0,0,0,0,0,0,0,0,0,0,0,0,0,0,0,0,0
11,Guanajuato,042,Valle de Santiago,20.411124713286696,-101.25365756293702,20.391322,-101.18143,0,0,0,0,0,0,0,0,0,0,0,0,0,0,0,0,0,0,0,0,0,0
11,Guanajuato,043,Victoria,21.35607556923077,-100.22337091282047,21.212172,-100.215936,0,0,0,0,0,0,0,0,0,0,0,0,0,0,0,0,0,0,0,0,0,0
11,Guanajuato,044,Villagrán,20.535258354285716,-100.9834089257143,20.511372,-100.996503,0,0,0,0,0,0,0,0,0,0,0,0,0,0,0,0,0,0,0,0,0,0
11,Guanajuato,045,Xichú,21.343448388888895,-99.99675716666671,21.298608,-100.059612,0,0,0,0,0,0,0,0,0,0,0,0,0,0,0,0,0,0,0,0,0,0
11,Guanajuato,046,Yuriria,20.187973422222225,-101.20685518518515,20.212743,-101.130933,0,0,0,0,0,0,0,0,0,0,0,0,0,0,0,0,0,0,0,0,0,0
12,Guerrero,001,Acapulco de Juárez,16.924265700348432,-99.74129292682923,16.861867,-99.886558,2,2,2,2,3,3,4,5,5,5,5,7,7,7,8,8,11,12,13,13,13,13
12,Guerrero,002,Ahuacuotzingo,17.743425653594773,-98.91774773856207,17.714089,-98.934908,0,0,0,0,0,0,0,0,1,1,1,1,1,1,1,1,1,1,1,1,1,1
12,Guerrero,003,Ajuchitlán del Progreso,17.948725391959794,-100.59349860301504,18.159555,-100.496057,0,0,0,0,0,0,0,0,0,0,0,0,0,0,0,0,0,0,0,0,0,0
12,Guerrero,004,Alcozauca de Guerrero,17.37237389473684,-98.37018668421054,17.463524,-98.383888,0,0,0,0,0,0,0,0,0,0,0,0,0,0,0,0,0,0,0,0,0,0
12,Guerrero,005,Alpoyeca,17.645801833333334,-98.51255041666667,17.670064,-98.513239,0,0,0,0,0,0,0,0,0,0,0,0,0,0,0,0,0,0,0,0,0,0
12,Guerrero,006,Apaxtla,18.083771978260874,-99.99172993478261,18.130078,-99.932314,0,0,0,0,0,0,0,0,0,0,0,0,0,0,0,0,0,0,0,0,0,0
12,Guerrero,007,Arcelia,18.263101614864865,-100.18451897297305,18.315825,-100.283952,0,0,0,0,0,0,0,0,0,0,0,0,0,0,0,0,0,0,0,0,0,0
12,Guerrero,008,Atenango del Río,18.17981705882353,-99.1037229117647,18.104343,-99.107803,0,0,0,0,1,1,1,1,1,1,1,1,1,1,1,1,1,1,1,1,1,1
12,Guerrero,009,Atlamajalcingo del Monte,17.29674356521739,-98.5749173478261,17.295871,-98.550168,0,0,0,0,0,0,0,0,0,0,0,0,0,0,0,0,0,0,0,0,0,0
12,Guerrero,010,Atlixtac,17.483658855932205,-98.89587275423726,17.563679,-98.933232,0,0,0,0,0,0,0,0,0,0,0,0,0,0,0,0,0,0,0,0,0,0
12,Guerrero,011,Atoyac de Álvarez,17.273071285714284,-100.34737274369749,17.212739,-100.433129,0,0,0,0,0,0,0,0,0,0,0,0,0,0,0,0,0,0,0,0,0,1
12,Guerrero,012,Ayutla de los Libres,16.952575375796172,-99.06536719108277,16.965287,-99.097384,0,0,0,0,0,0,0,0,0,0,0,0,0,0,0,0,0,0,0,0,0,0
12,Guerrero,013,Azoyú,16.650265487804877,-98.57770569512195,16.73296,-98.601091,0,0,0,0,0,0,0,0,0,0,0,0,0,0,0,0,0,0,0,0,0,0
12,Guerrero,014,Benito Juárez,17.10860264383561,-100.4664916438356,17.13637,-100.468668,0,0,0,0,0,0,0,0,0,0,0,0,0,0,0,0,0,0,0,0,0,0
12,Guerrero,015,Buenavista de Cuéllar,18.46939929508196,-99.41322800000002,18.457887,-99.405342,0,0,0,0,0,0,0,0,0,0,0,0,0,0,0,0,0,0,0,0,0,0
12,Guerrero,016,Coahuayutla de José María Izazaga,18.27873511877394,-101.6394424980843,18.316395,-101.734611,0,0,0,0,0,0,0,0,0,0,0,0,0,0,0,0,0,0,0,0,0,0
12,Guerrero,017,Cocula,18.164899692307692,-99.7023324102564,18.235866,-99.66119,1,1,1,1,1,1,1,1,1,1,1,1,1,1,1,1,1,1,1,1,1,1
12,Guerrero,018,Copala,16.606145750000003,-98.93676267307691,16.608759,-98.978624,0,0,0,0,0,0,0,0,0,0,0,1,1,1,1,1,1,1,1,1,1,1
12,Guerrero,019,Copalillo,17.969796187500002,-99.05297184375,18.034151,-99.041724,0,0,0,0,0,0,0,0,0,0,0,0,0,0,0,0,0,0,0,0,0,0
12,Guerrero,020,Copanatoyac,17.42846337931034,-98.69842465517242,17.461845,-98.713463,0,0,0,0,0,0,0,0,0,0,0,0,0,0,0,0,0,0,0,0,0,0
12,Guerrero,021,Coyuca de Benítez,17.068684437125757,-100.08624316766468,17.009002,-100.089367,0,0,0,0,0,0,0,0,0,0,1,1,1,1,1,1,1,1,1,1,1,1
12,Guerrero,022,Coyuca de Catalán,18.056724152343765,-100.95946229296881,18.331019,-100.698566,0,0,0,0,0,0,0,0,0,0,0,0,0,0,0,0,0,0,0,0,0,0
12,Guerrero,023,Cuajinicuilapa,16.490877561403504,-98.50204118713445,16.471986,-98.416745,0,0,0,0,0,0,0,0,0,0,0,0,0,0,0,0,0,0,0,0,0,0
12,Guerrero,024,Cualác,17.729258954545454,-98.67195862121214,17.742762,-98.660728,0,0,0,0,0,0,0,0,0,0,0,0,0,0,0,0,0,0,0,0,0,0
12,Guerrero,025,Cuautepec,16.704031999999998,-98.98742031578946,16.749003,-99.001546,0,0,0,0,0,0,0,0,0,0,0,0,0,0,0,0,0,0,0,0,0,0
12,Guerrero,026,Cuetzala del Progreso,18.128398999999998,-99.81053068181818,18.134141,-99.831486,0,0,0,0,0,0,0,0,0,0,0,0,0,0,0,0,0,0,0,0,0,0
12,Guerrero,027,Cutzamala de Pinzón,18.659556949494945,-100.60092168181812,18.465244,-100.578513,0,0,0,0,0,0,0,0,0,0,0,0,0,0,0,0,0,0,0,0,0,0
12,Guerrero,028,Chilapa de Álvarez,17.51628133802816,-99.11344144131455,17.594232,-99.177682,0,0,0,0,0,0,0,0,1,1,1,1,1,1,1,1,1,1,1,1,1,1
12,Guerrero,029,Chilpancingo de los Bravo,17.404597159763302,-99.5922207633136,17.551649,-99.501063,2,2,2,2,2,2,2,2,2,3,5,5,5,5,5,6,6,6,6,6,6,6
12,Guerrero,030,Florencio Villarreal,16.701176189655175,-99.15624632758623,16.723881,-99.123787,0,0,0,0,0,0,0,0,0,0,0,0,0,0,0,0,0,0,0,0,0,0
12,Guerrero,031,General Canuto A. Neri,18.43082009230769,-100.09946816923078,18.418485,-100.072052,0,0,0,0,0,0,0,0,0,0,0,0,0,0,0,0,0,0,0,0,0,0
12,Guerrero,032,General Heliodoro Castillo,17.741685767741938,-100.02910030000002,17.789448,-99.978318,0,0,0,0,0,0,0,0,0,0,0,0,0,0,0,0,0,0,0,0,0,0
12,Guerrero,033,Huamuxtitlán,17.789977206896552,-98.5576098275862,17.802174,-98.565287,1,1,1,1,1,1,1,1,1,1,1,2,2,2,2,3,3,3,3,3,3,3
12,Guerrero,034,Huitzuco de los Figueroa,18.287446278481006,-99.2622918227848,18.30598,-99.334303,0,0,0,0,0,0,0,0,0,0,0,0,0,0,0,0,0,0,0,0,0,0
12,Guerrero,035,Iguala de la Independencia,18.307530500000002,-99.55022600000001,18.344549,-99.538368,0,0,1,1,1,1,1,1,1,1,1,3,3,3,3,6,11,11,12,12,11,12
12,Guerrero,036,Igualapa,16.75467945,-98.48182,16.743713,-98.476618,0,0,0,0,0,0,0,0,0,0,0,0,0,0,0,0,0,0,0,0,0,0
12,Guerrero,037,Ixcateopan de Cuauhtémoc,18.47505003125,-99.79189424999998,18.502452,-99.793569,0,0,0,0,0,0,0,0,0,0,0,0,0,0,0,0,0,0,0,0,0,0
12,Guerrero,038,Zihuatanejo de Azueta,17.812499896428577,-101.4217957821428,17.650458,-101.548176,0,0,0,0,0,0,0,0,0,0,0,0,0,0,0,0,0,0,0,0,0,0
12,Guerrero,039,Juan R. Escudero,17.13308348888889,-99.50837235555557,17.169004,-99.522047,0,0,0,0,0,0,0,0,0,0,0,0,0,0,0,0,0,0,0,0,0,0
12,Guerrero,040,Leonardo Bravo,17.62649334090909,-99.80688047727268,17.660802,-99.677341,0,0,0,0,0,0,0,0,0,0,0,0,0,0,0,0,0,0,0,0,0,0
12,Guerrero,041,Malinaltepec,17.17958959124088,-98.70515816788321,16.995839,-98.736104,0,0,0,0,0,0,0,0,0,0,0,0,0,0,0,0,0,0,0,0,0,0
12,Guerrero,042,Mártir de Cuilapan,17.824813,-99.34278590000001,17.741925,-99.329341,0,0,0,0,0,0,0,0,0,0,0,0,0,0,0,0,0,0,0,0,0,0
12,Guerrero,043,Metlatónoc,17.17060005319149,-98.41835160638297,17.195372,-98.407099,0,0,0,0,0,0,0,0,0,0,0,0,0,0,0,0,0,0,0,0,0,0
12,Guerrero,044,Mochitlán,17.381303155555557,-99.36778055555557,17.472358,-99.371294,0,0,0,0,0,0,0,0,0,0,0,0,0,0,0,0,0,0,0,0,0,0
12,Guerrero,045,Olinalá,17.864518524999994,-98.75096673750002,17.778332,-98.741256,0,0,0,0,0,0,0,0,0,0,0,0,0,0,0,0,0,0,0,0,0,0
12,Guerrero,046,Ometepec,16.68024746060607,-98.38062826666669,16.685089,-98.404421,0,0,0,0,0,0,0,0,0,0,0,0,0,0,0,0,0,0,0,0,0,0
12,Guerrero,047,Pedro Ascencio Alquisiras,18.546655733333335,-99.86314976666667,18.512364,-99.887018,0,0,0,0,0,0,0,0,0,0,0,0,0,0,0,0,0,0,0,0,0,0
12,Guerrero,048,Petatlán,17.60685098004988,-101.16987762094767,17.538207,-101.274552,0,0,0,0,0,0,0,0,0,0,0,0,0,0,0,0,0,0,0,0,0,0
12,Guerrero,049,Pilcaya,18.71045634883721,-99.62552474418607,18.747584,-99.676175,0,0,0,0,0,0,0,0,0,0,0,0,0,0,0,0,0,0,0,0,0,0
12,Guerrero,050,Pungarabato,18.34244421875,-100.62930390625004,18.362273,-100.668241,0,0,0,0,0,0,0,0,0,0,0,0,0,0,0,0,1,1,1,1,1,1
12,Guerrero,051,Quechultenango,17.344252318681317,-99.17308321978025,17.409167,-99.240833,0,0,0,0,0,0,0,0,0,0,0,0,0,0,0,0,0,0,0,0,0,0
12,Guerrero,052,San Luis Acatlán,16.90219791525423,-98.69505922033895,16.808583,-98.733613,0,0,0,0,0,0,0,0,0,0,0,0,0,0,0,0,0,0,0,0,0,0
12,Guerrero,053,San Marcos,16.777141493055556,-99.37566983333333,16.797344,-99.390046,0,0,0,0,0,0,0,0,0,0,0,0,0,0,0,0,0,0,0,0,0,0
12,Guerrero,054,San Miguel Totolapan,17.850395171052643,-100.29687072368428,18.161267,-100.390821,0,0,0,0,0,0,0,0,0,0,0,0,0,0,0,0,0,0,0,0,0,0
12,Guerrero,055,Taxco de Alarcón,18.547519697841732,-99.62998699280578,18.557382,-99.604595,0,0,1,2,2,2,2,2,2,2,4,4,4,4,4,4,5,5,5,5,5,5
12,Guerrero,056,Tecoanapa,16.974453915492965,-99.26360126760565,16.988854,-99.260876,0,0,0,0,0,0,0,0,0,0,0,0,0,0,0,0,0,0,0,0,0,0
12,Guerrero,057,Técpan de Galeana,17.37539263619049,-100.76218448761892,17.222609,-100.632378,0,0,0,0,0,0,0,0,0,0,0,0,0,0,0,0,0,0,0,0,0,0
12,Guerrero,058,Teloloapan,18.36095526605504,-99.94007303669733,18.371809,-99.869573,0,0,0,0,0,0,0,0,0,0,0,0,0,0,0,0,0,0,0,0,0,0
12,Guerrero,059,Tepecoacuilco de Trujano,18.16429998333334,-99.48775108333332,18.28699,-99.466694,0,0,0,0,0,0,0,0,0,0,0,0,0,0,0,1,1,1,1,1,1,1
12,Guerrero,060,Tetipac,18.65219805555556,-99.67792631481481,18.649385,-99.648982,0,0,0,0,0,0,0,0,0,0,0,0,0,0,0,0,0,0,0,0,0,0
12,Guerrero,061,Tixtla de Guerrero,17.580041050847463,-99.37788110169491,17.566724,-99.398271,0,0,0,0,0,0,0,0,0,0,0,0,0,0,0,0,0,0,0,0,0,0
12,Guerrero,062,Tlacoachistlahuaca,16.936539900000003,-98.25786567499998,16.809909,-98.301749,0,0,0,0,0,0,0,0,0,0,0,0,0,0,0,0,0,0,0,0,0,0
12,Guerrero,063,Tlacoapa,17.243680285714287,-98.77029811111115,17.259948,-98.748211,0,0,0,0,0,0,0,0,0,0,0,0,0,0,0,0,0,0,0,0,0,0
12,Guerrero,064,Tlalchapa,18.4293522368421,-100.45172194736844,18.408674,-100.478253,0,0,0,0,0,0,0,0,0,0,0,0,0,0,0,0,0,0,0,0,0,0
12,Guerrero,065,Tlalixtaquilla de Maldonado,17.575079315789473,-98.39338905263158,17.574484,-98.369862,0,0,0,0,0,0,0,0,0,0,0,0,0,0,0,0,0,0,0,0,0,0
12,Guerrero,066,Tlapa de Comonfort,17.53425146666666,-98.60442691333331,17.546949,-98.582138,0,0,0,0,0,0,0,0,0,0,0,0,0,0,0,0,0,0,0,0,0,0
12,Guerrero,067,Tlapehuala,18.271561219512193,-100.45440180487805,18.23976,-100.541574,0,0,0,0,0,0,0,0,0,0,0,0,0,0,0,0,0,0,0,0,0,0
12,Guerrero,068,La Unión de Isidoro Montes de Oca,18.000882802955672,-101.8671073497537,17.982333,-101.805685,0,0,0,0,0,0,0,0,0,1,1,1,1,1,1,1,1,1,1,1,2,2
12,Guerrero,069,Xalpatláhuac,17.446257206896547,-98.58153579310346,17.470875,-98.606449,0,0,0,0,0,0,0,1,1,1,1,1,1,1,1,1,1,1,1,1,1,1
12,Guerrero,070,Xochihuehuetlán,17.905547300000002,-98.51965435,17.90564,-98.487661,0,0,0,0,0,0,0,0,0,0,0,1,2,2,2,3,3,3,3,3,3,3
12,Guerrero,071,Xochistlahuaca,16.81092394262296,-98.18894168852461,16.792424,-98.242467,0,0,0,0,0,0,0,0,0,0,0,0,0,0,0,0,0,0,0,0,0,0
12,Guerrero,072,Zapotitlán Tablas,17.393094166666668,-98.79762568518517,17.422887,-98.781709,0,0,0,0,0,0,0,0,0,0,0,0,0,0,0,0,0,0,0,0,0,0
12,Guerrero,073,Zirándaro,18.36285687297921,-101.19147479907626,18.479133,-100.975856,0,0,0,0,0,0,0,0,0,0,0,0,0,0,0,0,0,0,0,0,0,0
12,Guerrero,074,Zitlala,17.72002102777778,-99.19708122222221,17.690341,-99.185248,0,0,0,0,0,0,0,0,0,0,0,0,0,0,0,0,0,0,0,0,0,0
12,Guerrero,075,Eduardo Neri,17.758914983606555,-99.59333301639343,17.653197,-99.525937,0,0,0,0,0,0,0,0,0,0,0,0,0,0,0,0,0,0,0,0,0,0
12,Guerrero,076,Acatepec,17.217093193749996,-98.91869298749997,17.325219,-98.910334,0,0,0,0,0,0,0,0,0,0,0,0,0,0,0,0,0,0,0,0,0,0
12,Guerrero,077,Marquelia,16.596403416666664,-98.76809544444444,16.583314,-98.817852,0,0,0,0,0,0,0,0,0,0,0,0,0,0,0,0,0,0,0,0,0,0
12,Guerrero,078,Cochoapa el Grande,17.11509244848485,-98.41475663636362,17.192967,-98.45528,0,0,0,0,0,0,0,0,0,0,0,0,0,0,0,0,0,0,0,0,0,0
12,Guerrero,079,José Joaquín de Herrera,17.438471169014083,-99.00130460563379,17.448726,-99.024388,0,0,0,0,0,0,0,0,0,0,0,0,0,0,0,0,0,0,0,0,0,0
12,Guerrero,080,Juchitán,16.586084702702703,-98.67628424324323,16.627071,-98.636714,0,0,0,0,0,0,0,0,0,0,0,0,0,0,0,0,0,0,0,0,0,0
12,Guerrero,081,Iliatenco,17.035647,-98.67292840425536,17.045531,-98.685811,0,0,0,0,0,0,0,0,0,0,0,0,0,0,0,0,0,0,0,0,0,0
13,Hidalgo,001,Acatlán,20.207599035087725,-98.44295010526312,20.167388,-98.388416,0,0,0,0,0,0,0,0,0,0,0,0,0,0,0,0,0,0,0,0,0,0
13,Hidalgo,002,Acaxochitlán,20.164379609374997,-98.18737814062499,20.125798,-98.178749,0,0,0,0,0,0,0,0,0,0,0,0,0,0,0,0,0,0,0,0,0,0
13,Hidalgo,003,Actopan,20.28539430232558,-98.91414397674421,20.269086,-98.942901,0,0,0,0,0,0,0,0,0,0,0,0,0,0,0,0,0,0,0,0,0,0
13,Hidalgo,004,Agua Blanca de Iturbide,20.360295250000004,-98.36911942857144,20.349504,-98.356386,0,0,0,0,0,0,0,0,0,0,0,0,0,0,0,0,0,0,0,0,0,0
13,Hidalgo,005,Ajacuba,20.1463185,-99.06139885,20.092525,-99.122133,0,0,0,0,0,0,0,0,0,0,0,0,0,0,0,0,0,0,0,0,0,0
13,Hidalgo,006,Alfajayucan,20.412360205479448,-99.38587741095887,20.409971,-99.349589,0,0,0,0,0,0,0,0,0,0,0,0,0,0,0,0,0,0,0,0,0,0
13,Hidalgo,007,Almoloya,19.742250441441442,-98.3422622162162,19.703319,-98.403293,0,0,0,0,0,0,0,0,0,0,0,0,0,0,0,0,0,0,0,0,0,0
13,Hidalgo,008,Apan,19.737175288461536,-98.43643464423079,19.71,-98.451944,0,0,0,0,0,0,0,0,0,0,0,0,0,0,0,1,1,1,1,1,1,2
13,Hidalgo,009,El Arenal,20.216732923076925,-98.8893501923077,20.221424,-98.911046,0,0,0,0,0,0,0,0,0,0,0,0,0,0,0,0,0,0,0,0,0,0
13,Hidalgo,010,Atitalaquia,20.056144599999996,-99.2199446,20.060612,-99.231596,0,0,0,0,0,0,0,0,0,0,0,0,0,0,0,0,0,0,0,0,0,0
13,Hidalgo,011,Atlapexco,21.025925862745105,-98.36802543137254,21.017114,-98.348187,0,0,0,0,0,0,0,0,0,0,0,0,0,0,0,0,0,0,0,0,0,0
13,Hidalgo,012,Atotonilco el Grande,20.346921573529414,-98.67432683823529,20.286882,-98.669062,0,0,0,0,0,0,0,0,0,0,0,0,0,0,0,0,0,0,0,0,1,1
13,Hidalgo,013,Atotonilco de Tula,19.971435620689654,-99.2371954827586,20.007767,-99.220191,0,0,1,1,1,1,1,1,1,1,1,1,1,1,1,1,1,1,1,1,1,1
13,Hidalgo,014,Calnali,20.90177995652174,-98.57058925000001,20.897178,-98.583532,0,0,0,0,0,0,0,0,0,0,0,0,0,0,0,0,0,0,0,0,0,0
13,Hidalgo,015,Cardonal,20.629835916666668,-99.07421816666664,20.593042,-99.142418,0,0,0,0,0,0,0,0,0,0,0,0,0,0,0,0,0,0,0,0,0,1
13,Hidalgo,016,Cuautepec de Hinojosa,19.983016676190477,-98.28577289523807,20.03547,-98.309738,0,0,0,0,0,0,0,0,0,0,0,0,0,0,0,0,0,0,0,0,0,0
13,Hidalgo,017,Chapantongo,20.26581957777777,-99.46636588888887,20.236898,-99.549291,0,0,0,0,0,0,0,0,0,0,0,0,0,0,0,0,0,0,0,0,0,0
13,Hidalgo,018,Chapulhuacán,21.143038378378375,-98.93077253153153,21.159418,-98.904588,0,0,0,0,0,0,0,0,0,0,0,0,0,0,0,0,0,0,0,0,0,0
13,Hidalgo,019,Chilcuautla,20.337090147058824,-99.23294823529412,20.251402,-99.246215,0,0,0,0,0,0,0,0,0,0,0,0,0,0,0,0,0,0,0,0,0,0
13,Hidalgo,020,Eloxochitlán,20.727187961538466,-98.87681896153846,20.708618,-98.836292,0,0,0,0,0,0,0,0,0,0,0,0,0,0,0,0,0,0,0,0,0,0
13,Hidalgo,021,Emiliano Zapata,19.65529139130435,-98.5688694782609,19.657008,-98.547416,1,1,1,1,1,1,1,1,1,1,1,1,1,1,1,1,1,1,1,1,1,1
13,Hidalgo,022,Epazoyucan,20.026839532467534,-98.6395715844156,20.018022,-98.636209,0,0,0,0,0,0,0,0,0,0,0,0,0,0,0,0,0,0,0,0,0,0
13,Hidalgo,023,Francisco I. Madero,20.238469605263155,-99.0788952368421,20.245186,-99.088894,0,0,0,0,0,0,0,0,0,0,0,0,0,0,0,0,0,0,0,0,0,0
13,Hidalgo,024,Huasca de Ocampo,20.232146013698628,-98.5455083287671,20.208791,-98.498202,0,0,0,0,0,0,0,0,0,0,0,0,0,0,0,0,0,0,0,0,0,0
13,Hidalgo,025,Huautla,21.043545459459455,-98.24768083783785,21.031387,-98.286821,0,0,0,0,0,0,0,0,0,0,0,0,0,0,0,0,0,0,0,0,0,0
13,Hidalgo,026,Huazalingo,21.000045790697676,-98.49036811627906,21.021864,-98.526516,0,0,0,0,0,0,0,0,0,0,0,0,0,0,0,0,0,0,0,0,0,0
13,Hidalgo,027,Huehuetla,20.512051494736845,-98.07072103157897,20.460306,-98.078424,0,0,0,0,0,0,0,0,0,0,0,0,0,0,0,0,0,0,0,0,0,0
13,Hidalgo,028,Huejutla de Reyes,21.115760178899066,-98.4774448073394,21.139212,-98.420595,0,0,0,0,0,0,0,0,0,0,0,0,0,0,0,1,1,1,1,1,1,1
13,Hidalgo,029,Huichapan,20.389179925925934,-99.65119728703704,20.375313,-99.651181,0,0,0,0,0,0,0,0,0,0,0,0,0,0,0,0,0,0,0,0,0,0
13,Hidalgo,030,Ixmiquilpan,20.53861281512605,-99.19432016806726,20.484868,-99.218774,0,0,0,0,0,0,0,0,0,0,0,0,0,0,0,0,0,0,0,0,0,0
13,Hidalgo,031,Jacala de Ledezma,20.96602996078431,-99.14884584313728,21.008296,-99.188569,0,0,0,0,0,0,0,0,0,0,0,0,0,0,0,0,0,0,0,0,0,0
13,Hidalgo,032,Jaltocán,21.153656458333334,-98.52356766666668,21.133132,-98.538324,0,0,0,0,0,0,0,0,0,0,0,0,0,0,0,0,0,0,0,0,0,0
13,Hidalgo,033,Juárez Hidalgo,20.831602071428566,-98.83844514285714,20.822378,-98.816802,0,0,0,0,0,0,0,0,0,0,0,0,0,0,0,0,0,0,0,0,0,0
13,Hidalgo,034,Lolotla,21.0061745,-98.73048303333331,20.883631,-98.703353,0,0,0,0,0,0,0,0,0,0,0,0,0,0,0,0,0,0,0,0,0,0
13,Hidalgo,035,Metepec,20.2641315,-98.34397133333334,20.23841,-98.322164,0,0,0,0,0,0,0,0,0,0,0,0,0,0,0,0,0,0,0,0,0,0
13,Hidalgo,036,San Agustín Metzquititlán,20.50576233333334,-98.62361552083331,20.532602,-98.638621,0,0,0,0,0,0,0,0,0,0,0,0,0,0,0,0,0,0,0,0,0,0
13,Hidalgo,037,Metztitlán,20.566520650406495,-98.79736215447156,20.5947,-98.764144,0,0,0,0,0,0,0,0,0,0,0,0,0,0,0,0,0,0,0,0,0,0
13,Hidalgo,038,Mineral del Chico,20.217917771428567,-98.74968125714285,20.180206,-98.757151,0,0,0,0,0,0,0,0,0,0,0,0,0,0,0,0,0,0,0,0,0,0
13,Hidalgo,039,Mineral del Monte,20.143899519999998,-98.66278944,20.140491,-98.67153,0,1,1,1,1,1,1,1,1,1,1,1,1,1,1,1,1,1,1,1,1,1
13,Hidalgo,040,La Misión,21.070388752808984,-99.07155038202248,21.099419,-99.123187,0,0,0,0,0,0,0,0,0,0,0,0,0,0,0,0,0,0,0,0,0,0
13,Hidalgo,041,Mixquiahuala de Juárez,20.221660657894734,-99.18341749999999,20.22938,-99.213798,0,0,0,0,0,0,0,0,0,0,0,0,0,0,0,0,0,0,0,1,1,1
13,Hidalgo,042,Molango de Escamilla,20.840201558139533,-98.75858506976745,20.786498,-98.730814,0,0,0,0,0,0,0,0,0,0,0,0,0,0,0,0,0,0,0,0,0,0
13,Hidalgo,043,Nicolás Flores,20.795259822222224,-99.17323246666663,20.722925,-99.165393,0,0,0,0,0,0,0,0,0,0,0,0,0,0,0,0,0,0,0,0,0,0
13,Hidalgo,044,Nopala de Villagrán,20.231328531531528,-99.68152307207204,20.280064,-99.688252,0,0,0,0,0,0,0,0,0,0,0,0,0,0,0,0,0,0,0,0,0,0
13,Hidalgo,045,Omitlán de Juárez,20.178504424242423,-98.63634,20.147639,-98.616265,0,0,0,0,0,0,0,0,0,0,0,0,0,0,0,0,0,0,0,0,0,0
13,Hidalgo,046,San Felipe Orizatlán,21.239694630136995,-98.58393186301369,21.170944,-98.607815,0,0,0,0,0,0,0,0,0,0,0,0,0,0,0,0,0,0,0,0,0,0
13,Hidalgo,047,Pacula,20.96498671428572,-99.3209970857143,20.982538,-99.344523,0,0,0,0,0,0,0,0,0,0,0,0,0,0,0,0,0,0,0,0,0,0
13,Hidalgo,048,Pachuca de Soto,20.09507402777778,-98.79166319444444,20.12236,-98.737001,4,4,5,5,6,7,8,9,9,9,8,9,9,9,10,11,12,12,12,12,13,13
13,Hidalgo,049,Pisaflores,21.22815182716049,-98.99530350617285,21.194782,-99.005997,0,0,0,0,0,0,0,0,0,0,0,0,0,0,0,0,0,0,0,0,0,0
13,Hidalgo,050,Progreso de Obregón,20.29327534782608,-99.18928817391306,20.248195,-99.189359,0,0,0,0,0,0,0,0,0,0,0,0,0,0,0,0,0,0,0,0,0,0
13,Hidalgo,051,Mineral de la Reforma,20.072178216000005,-98.72974854400002,20.064832,-98.719454,1,1,1,1,1,1,1,1,1,1,1,1,1,1,1,2,2,2,2,2,2,2
13,Hidalgo,052,San Agustín Tlaxiaca,20.10689109090909,-98.90830413636361,20.115661,-98.886778,1,1,1,1,1,1,1,1,1,1,1,1,1,1,1,1,1,1,1,1,1,1
13,Hidalgo,053,San Bartolo Tutotepec,20.4506507669173,-98.19902590225564,20.399143,-98.20206,0,0,0,0,0,0,0,0,0,0,0,0,0,0,0,0,0,0,0,0,0,0
13,Hidalgo,054,San Salvador,20.293111699999994,-99.03279615999998,20.25494,-98.998624,0,0,0,0,0,0,0,0,0,0,0,0,0,1,1,1,1,1,1,1,2,2
13,Hidalgo,055,Santiago de Anaya,20.40609435483871,-98.97521974193549,20.392632,-99.077724,0,0,0,0,0,0,0,0,0,0,0,0,0,0,0,0,0,0,0,0,0,0
13,Hidalgo,056,Santiago Tulantepec de Lugo Guerrero,20.04185024137931,-98.39132055172414,20.039193,-98.357006,0,0,0,0,0,0,0,0,0,0,0,0,0,0,0,0,0,0,0,0,0,0
13,Hidalgo,057,Singuilucan,19.990865717557256,-98.51536485496182,19.9675,-98.517222,0,0,0,0,0,0,0,0,0,0,0,0,0,0,0,0,0,0,0,0,0,0
13,Hidalgo,058,Tasquillo,20.545907374999995,-99.34584987499997,20.551772,-99.312556,0,0,0,0,0,0,0,0,0,0,0,0,0,0,0,0,0,0,0,0,0,0
13,Hidalgo,059,Tecozautla,20.533095287500004,-99.64670160000001,20.533873,-99.634924,0,0,0,0,0,0,0,0,0,0,0,0,0,0,0,0,0,0,0,0,0,0
13,Hidalgo,060,Tenango de Doria,20.354216816666664,-98.20403206666667,20.338056,-98.226729,0,0,0,0,0,0,0,0,0,0,0,0,0,0,0,0,0,0,0,0,0,0
13,Hidalgo,061,Tepeapulco,19.80606238028169,-98.50072233802817,19.772706,-98.581903,0,0,0,0,0,0,0,0,0,0,0,0,0,0,0,0,0,0,0,0,0,0
13,Hidalgo,062,Tepehuacán de Guerrero,21.067703569892483,-98.84700554838713,21.125743,-98.779985,0,0,0,0,0,0,0,0,0,0,0,0,0,0,0,0,0,0,0,0,0,0
13,Hidalgo,063,Tepeji del Río de Ocampo,19.904450051948057,-99.35120637662341,19.905217,-99.341814,0,0,0,0,0,0,0,0,0,0,0,0,0,0,1,1,1,1,1,1,1,1
13,Hidalgo,064,Tepetitlán,20.18335581818182,-99.38880113636364,20.155868,-99.34775,0,0,0,0,0,0,0,0,0,0,0,0,0,0,0,0,0,0,0,0,0,0
13,Hidalgo,065,Tetepango,20.115339777777777,-99.16265877777776,20.102655,-99.156123,0,0,0,0,0,0,0,0,0,0,0,0,0,0,0,0,0,0,0,0,0,0
13,Hidalgo,066,Villa de Tezontepec,19.905948600000002,-98.80692867999998,19.879861,-98.81929,0,0,0,0,0,0,0,0,0,0,0,0,0,0,0,0,0,0,0,0,0,0
13,Hidalgo,067,Tezontepec de Aldama,20.172619976744183,-99.28304406976743,20.160547,-99.252891,0,0,0,0,0,0,0,0,1,1,1,2,2,2,2,2,2,2,2,3,3,4
13,Hidalgo,068,Tianguistengo,20.781252736111114,-98.55370238888887,20.728213,-98.630851,0,0,0,0,0,0,0,0,0,0,0,0,0,0,0,0,0,0,0,0,0,0
13,Hidalgo,069,Tizayuca,19.861830770833333,-98.95395897916667,19.841089,-98.981584,0,0,0,0,0,0,0,0,0,0,0,0,0,0,0,1,1,2,3,3,3,4
13,Hidalgo,070,Tlahuelilpan,20.130877277777778,-99.22491344444445,20.130627,-99.23468,0,0,0,0,0,0,0,0,0,0,0,0,0,0,0,0,0,0,0,0,0,0
13,Hidalgo,071,Tlahuiltepa,20.896786571428567,-98.9606864887218,20.902284,-98.901602,0,0,0,0,0,0,0,0,0,0,0,0,0,0,0,0,0,0,0,0,0,0
13,Hidalgo,072,Tlanalapa,19.82404116666667,-98.59695469999998,19.817894,-98.603913,0,0,0,0,0,0,0,0,0,0,0,0,0,0,0,0,0,0,0,0,0,0
13,Hidalgo,073,Tlanchinol,21.03165323958334,-98.6517784583334,20.989346,-98.660284,0,0,0,0,0,0,0,0,0,0,0,0,0,0,0,0,0,0,0,0,0,0
13,Hidalgo,074,Tlaxcoapan,20.096376999999997,-99.22590036363637,20.091614,-99.221593,0,0,0,0,0,0,0,0,0,0,0,0,0,0,0,0,0,0,0,0,1,2
13,Hidalgo,075,Tolcayuca,19.946760285714294,-98.92030242857143,19.956591,-98.921761,0,0,0,0,0,0,0,0,0,0,0,0,0,0,0,0,0,0,0,0,0,0
13,Hidalgo,076,Tula de Allende,20.048754564102563,-99.35470596153847,20.05522,-99.343189,0,0,0,0,0,0,0,0,0,0,0,0,0,0,0,2,2,3,3,3,3,3
13,Hidalgo,077,Tulancingo de Bravo,20.11969897560976,-98.36317602439026,20.080605,-98.368073,0,0,0,0,0,0,0,0,0,0,0,0,0,0,0,0,0,0,0,0,1,1
13,Hidalgo,078,Xochiatipan,20.857435619047617,-98.28206773809524,20.892526,-98.26208,0,0,0,0,0,0,0,0,0,0,0,0,0,0,0,0,0,0,0,0,0,0
13,Hidalgo,079,Xochicoatlán,20.79717362857143,-98.63734054285713,20.776855,-98.679724,0,0,0,0,0,0,0,0,0,0,0,0,0,0,0,0,0,0,0,0,0,0
13,Hidalgo,080,Yahualica,20.91505597297297,-98.37885527027026,20.890503,-98.383551,0,0,0,0,0,0,0,0,0,0,0,0,0,0,0,0,0,0,0,0,0,0
13,Hidalgo,081,Zacualtipán de Ángeles,20.66038451351352,-98.57364016216215,20.645181,-98.653627,0,0,0,0,0,0,0,0,0,0,0,0,0,0,0,0,0,0,0,0,0,0
13,Hidalgo,082,Zapotlán de Juárez,19.993381933333332,-98.86206336666666,20.030517,-98.842306,0,0,0,0,0,0,0,0,0,0,0,0,0,0,0,0,0,0,0,0,1,1
13,Hidalgo,083,Zempoala,19.93968967592592,-98.67292683333334,19.915397,-98.668131,0,0,0,0,0,0,0,0,0,0,0,0,0,0,0,0,0,0,0,0,0,0
13,Hidalgo,084,Zimapán,20.742516335294116,-99.35654149411761,20.738069,-99.383113,0,0,0,0,0,0,0,0,0,0,0,0,0,0,0,0,0,0,0,0,0,0
14,Jalisco,001,Acatic,20.765583237288133,-102.91544175423729,20.779444,-102.905278,1,1,1,1,1,1,1,1,1,1,1,1,1,1,1,1,1,1,1,1,1,1
14,Jalisco,002,Acatlán de Juárez,20.426821592592596,-103.60389803703703,20.421389,-103.587222,0,0,0,0,0,0,0,0,0,0,0,0,0,0,0,0,0,0,0,0,0,0
14,Jalisco,003,Ahualulco de Mercado,20.699172880597015,-103.95512395522388,20.700556,-103.975,0,0,0,0,0,0,0,0,0,0,0,0,0,0,0,0,0,0,0,0,0,0
14,Jalisco,004,Amacueca,19.98804875,-103.61353153125,20.010556,-103.596111,0,0,0,0,0,0,0,0,0,0,0,0,0,0,0,0,0,0,0,0,0,0
14,Jalisco,005,Amatitán,20.857882583333332,-103.72397581666668,20.835,-103.73,0,0,0,0,0,0,0,0,0,0,0,0,0,0,0,0,0,0,0,0,0,0
14,Jalisco,006,Ameca,20.53625987283237,-104.0501078612717,20.548611,-104.043056,0,0,0,0,0,0,0,0,0,0,0,0,0,0,0,0,0,0,0,0,0,0
14,Jalisco,007,San Juanito de Escobedo,20.802018225000005,-104.02258497499997,20.799444,-104.000278,0,0,0,0,0,0,0,0,0,0,0,0,0,0,0,0,0,0,0,0,0,0
14,Jalisco,008,Arandas,20.76258541525423,-102.30414060169495,20.705556,-102.340278,0,0,0,0,0,0,0,0,0,0,0,0,0,0,0,0,0,0,0,0,0,0
14,Jalisco,009,El Arenal,20.754981125,-103.66035299999996,20.776111,-103.693889,0,0,0,0,0,0,0,0,0,0,0,0,0,0,0,0,0,0,0,0,0,0
14,Jalisco,010,Atemajac de Brizuela,20.141799756097566,-103.70973597560975,20.139444,-103.724444,0,0,0,0,0,0,0,0,0,0,0,0,0,0,0,0,0,0,0,0,0,0
14,Jalisco,011,Atengo,20.29428277272728,-104.26238851515153,20.306094,-104.280961,0,0,0,0,0,0,0,0,0,0,0,0,0,0,0,0,0,0,0,0,0,0
14,Jalisco,012,Atenguillo,20.37062733599998,-104.51259144000002,20.414722,-104.4925,0,0,0,0,0,0,0,0,0,0,0,0,0,0,0,0,0,0,0,0,0,0
14,Jalisco,013,Atotonilco el Alto,20.549843273631843,-102.53667133333335,20.550556,-102.504167,0,0,0,0,0,0,0,0,0,0,0,0,0,0,0,0,0,0,0,0,0,0
14,Jalisco,014,Atoyac,19.98504818333333,-103.47007865,20.010556,-103.516389,0,0,0,0,0,0,0,0,0,0,0,0,0,0,0,0,0,0,0,0,0,0
14,Jalisco,015,Autlán de Navarro,19.75381783056476,-104.30331928239204,19.771389,-104.365278,0,0,0,0,0,0,0,0,0,0,0,0,0,0,0,0,0,0,0,0,0,0
14,Jalisco,016,Ayotlán,20.493991948148153,-102.35083017777777,20.528056,-102.328333,0,0,0,0,0,0,0,0,0,0,0,0,0,0,0,0,0,0,0,0,0,0
14,Jalisco,017,Ayutla,20.064492079268305,-104.40034132926829,20.129167,-104.347778,0,0,0,0,0,0,0,0,0,0,0,0,0,0,0,0,0,0,0,0,0,0
14,Jalisco,018,La Barca,20.353871398104275,-102.52337229383897,20.290278,-102.541944,0,0,0,0,0,0,0,0,0,0,0,0,1,1,1,1,1,1,1,1,1,1
14,Jalisco,019,Bolaños,21.861744799270067,-103.93679862773722,21.874827,-104.013223,0,0,0,0,0,0,0,0,0,0,0,0,0,0,0,0,0,0,0,0,0,0
14,Jalisco,020,Cabo Corrientes,20.343729869565205,-105.3949430782609,20.318333,-105.323889,0,0,0,0,0,0,0,0,0,0,0,0,0,0,0,0,0,0,0,0,0,0
14,Jalisco,021,Casimiro Castillo,19.59614593959732,-104.47924669127516,19.603611,-104.434722,0,0,0,0,0,0,0,0,0,0,0,0,0,0,0,0,0,0,0,0,0,0
14,Jalisco,022,Cihuatlán,19.239005898148154,-104.64838896296297,19.238333,-104.563056,0,0,0,0,0,0,0,0,0,0,0,0,0,0,0,0,0,0,0,0,0,0
14,Jalisco,023,Zapotlán el Grande,19.703844763157903,-103.49512475263153,19.708611,-103.464167,0,0,0,0,0,0,0,0,0,0,0,0,0,0,0,0,0,0,0,0,0,0
14,Jalisco,024,Cocula,20.38602185483871,-103.82637241935484,20.3675,-103.824167,0,0,0,0,0,0,0,0,0,0,0,0,0,0,0,0,0,0,0,0,0,0
14,Jalisco,025,Colotlán,22.08640312318841,-103.28640838405799,22.117222,-103.264722,0,0,0,0,0,0,0,0,0,0,1,1,1,1,1,1,1,1,1,1,1,1
14,Jalisco,026,Concepción de Buenos Aires,19.99041113461539,-103.22023519230768,19.978611,-103.257222,0,0,0,0,0,0,0,0,0,0,0,0,0,0,0,0,0,0,0,0,0,0
14,Jalisco,027,Cuautitlán de García Barragán,19.432229140776695,-104.29307147087383,19.449722,-104.356944,0,0,0,0,0,0,0,0,0,0,0,0,0,0,0,0,0,0,0,0,0,0
14,Jalisco,028,Cuautla,20.20486141538462,-104.47269815384612,20.201389,-104.4075,0,0,0,0,0,0,0,0,0,0,0,0,0,0,0,0,0,0,0,0,0,0
14,Jalisco,029,Cuquío,20.964296668181795,-103.03749428636362,20.9275,-103.023889,0,0,0,0,0,0,0,0,0,0,0,0,0,0,0,0,0,0,0,0,0,0
14,Jalisco,030,Chapala,20.331061824324323,-103.16223172972968,20.293333,-103.189722,0,0,0,0,0,0,0,0,0,0,0,0,0,0,0,0,0,0,0,0,0,0
14,Jalisco,031,Chimaltitán,21.74803542168675,-103.69456239156627,21.778611,-103.780556,0,0,0,0,0,0,0,0,0,0,0,0,0,0,0,0,0,0,0,0,0,0
14,Jalisco,032,Chiquilistlán,20.085618818181818,-103.89421402272728,20.088611,-103.858056,0,0,0,0,0,0,0,0,0,0,0,0,0,0,0,0,0,0,0,0,0,0
14,Jalisco,033,Degollado,20.45405569105691,-102.1493795365854,20.4475,-102.135,0,0,0,0,0,0,0,0,0,0,0,0,0,0,0,0,0,0,0,1,1,1
14,Jalisco,034,Ejutla,19.91732930357143,-104.08233701785714,19.906389,-104.161944,0,0,0,0,0,0,0,0,0,0,0,0,0,0,0,0,0,0,0,0,0,0
14,Jalisco,035,Encarnación de Díaz,21.57759122044089,-102.18139110821642,21.524444,-102.233056,0,0,0,0,0,0,0,0,0,0,0,0,0,0,0,0,0,0,0,0,0,0
14,Jalisco,036,Etzatlán,20.766522374999994,-104.1090424479167,20.767222,-104.078333,0,0,0,0,0,0,0,0,0,0,0,0,0,0,0,0,0,0,0,0,0,0
14,Jalisco,037,El Grullo,19.793664875862078,-104.20141384137926,19.8075,-104.215556,1,1,1,1,1,1,1,1,1,1,1,1,1,1,1,1,1,1,1,1,1,1
14,Jalisco,038,Guachinango,20.66942122222222,-104.4131929033817,20.576389,-104.377222,0,0,0,0,0,0,0,0,0,0,0,0,0,0,0,0,0,0,0,0,0,0
14,Jalisco,039,Guadalajara,20.702727333333332,-103.30131133333335,20.676389,-103.342222,3,3,3,3,4,4,4,4,4,4,4,4,5,5,5,5,5,7,7,8,9,9
14,Jalisco,040,Hostotipaquillo,21.060379702127662,-104.09223347872343,21.058056,-104.050278,0,0,0,0,0,0,0,0,0,0,0,0,0,0,0,0,0,0,0,0,0,0
14,Jalisco,041,Huejúcar,22.333194628865975,-103.25373244329896,22.362222,-103.211667,0,0,0,0,0,0,0,0,0,0,0,0,0,0,0,0,0,0,0,0,0,0
14,Jalisco,042,Huejuquilla el Alto,22.57844664601769,-103.90451387610621,22.628611,-103.894167,0,0,0,0,0,0,0,0,0,0,0,0,0,0,0,0,0,0,0,0,0,0
14,Jalisco,043,La Huerta,19.501772098939927,-104.8556038798587,19.485,-104.643333,0,0,0,0,0,0,0,0,0,0,0,0,0,0,0,0,0,0,0,0,0,0
14,Jalisco,044,Ixtlahuacán de los Membrillos,20.403726295774636,-103.205928112676,20.439167,-103.237778,0,0,0,0,0,0,0,0,0,0,0,0,0,0,0,0,0,0,0,0,0,0
14,Jalisco,045,Ixtlahuacán del Río,20.88077676363637,-103.21505415636358,20.864167,-103.239167,0,0,0,0,0,0,0,0,0,0,0,0,0,0,0,0,0,0,0,0,0,0
14,Jalisco,046,Jalostotitlán,21.189110792207792,-102.48260940692634,21.168611,-102.461111,0,0,0,0,0,0,0,0,0,0,0,0,0,0,0,0,0,0,0,0,0,0
14,Jalisco,047,Jamay,20.276147333333338,-102.67245227450978,20.294444,-102.709722,0,0,0,0,0,0,0,0,0,0,0,0,0,0,0,0,0,0,0,0,0,0
14,Jalisco,048,Jesús María,20.625565763285024,-102.13404721256043,20.6075,-102.22,0,0,0,0,0,0,0,0,0,0,0,0,0,0,0,0,0,0,0,0,0,0
14,Jalisco,049,Jilotlán de los Dolores,19.331222609999994,-102.91933857333332,19.370556,-103.019722,0,0,0,0,0,0,0,0,0,0,0,0,0,0,0,0,0,0,0,0,0,0
14,Jalisco,050,Jocotepec,20.292277500000004,-103.41492086585363,20.284444,-103.425278,0,0,0,0,0,0,0,0,0,0,0,0,0,0,0,0,0,0,0,0,0,0
14,Jalisco,051,Juanacatlán,20.49908434090909,-103.14994320454542,20.509444,-103.167222,0,0,0,0,0,0,0,0,0,0,0,0,0,0,0,0,0,0,0,0,0,0
14,Jalisco,052,Juchitlán,20.05602074576272,-104.03551972881357,20.083611,-104.098333,0,0,0,0,0,0,0,0,0,0,0,0,0,0,0,0,0,0,0,0,0,0
14,Jalisco,053,Lagos de Moreno,21.456116188481666,-101.90965953752175,21.356389,-101.929167,0,0,0,0,0,0,0,0,0,0,0,0,0,0,0,0,0,0,0,0,0,0
14,Jalisco,054,El Limón,19.829452212765958,-104.11259374468088,19.824444,-104.152222,0,0,0,0,0,0,0,0,0,0,0,0,0,0,0,0,0,0,0,0,0,0
14,Jalisco,055,Magdalena,20.917608169491523,-104.00951728813563,20.906389,-103.976111,0,0,0,0,0,0,0,0,0,0,0,0,0,0,0,0,0,0,0,0,0,0
14,Jalisco,056,Santa María del Oro,19.539657259036147,-102.84992083132533,19.5875,-102.908333,0,0,0,0,0,0,0,0,0,0,0,0,0,0,0,0,0,0,0,0,0,0
14,Jalisco,057,La Manzanilla de la Paz,20.020369612903227,-103.11580919354837,20.004444,-103.15,0,0,0,0,0,0,0,0,0,0,0,0,0,0,0,0,0,0,0,0,0,0
14,Jalisco,058,Mascota,20.550812591760312,-104.81483723595505,20.525556,-104.782222,0,0,0,0,0,0,0,0,0,0,0,0,0,0,0,0,0,0,0,0,0,0
14,Jalisco,059,Mazamitla,19.886669999999995,-103.0514550123457,19.917222,-103.020278,0,0,0,0,0,0,0,0,0,0,0,0,0,0,0,0,0,0,0,0,0,0
14,Jalisco,060,Mexticacán,21.266569221374052,-102.75574164122138,21.263056,-102.777778,0,0,0,0,0,0,0,0,0,0,0,0,0,0,0,0,0,0,0,0,0,0
14,Jalisco,061,Mezquitic,22.207494837528596,-104.04657543935939,22.39,-103.728056,0,0,0,0,0,0,0,0,0,0,0,0,0,0,0,0,0,0,0,0,0,0
14,Jalisco,062,Mixtlán,20.48315682954546,-104.4430629090909,20.440556,-104.408889,0,0,0,0,0,0,0,0,0,0,0,0,0,0,0,0,0,0,0,0,0,0
14,Jalisco,063,Ocotlán,20.389508685393263,-102.73986917977525,20.351389,-102.768056,0,0,0,0,0,0,0,0,0,0,1,1,2,2,2,2,2,2,2,2,2,2
14,Jalisco,064,Ojuelos de Jalisco,21.813966260869563,-101.68536715652169,21.864167,-101.593333,0,0,0,0,0,0,0,0,0,0,0,0,0,0,0,0,0,0,0,0,0,0
14,Jalisco,065,Pihuamo,19.189498632575752,-103.37769697348482,19.2525,-103.375,0,0,0,0,0,0,0,0,0,0,0,0,0,0,0,0,0,0,0,0,0,0
14,Jalisco,066,Poncitlán,20.3576949923077,-102.92633200769225,20.381389,-102.924167,0,0,0,0,0,0,0,0,0,0,0,0,0,0,0,0,0,0,0,0,0,0
14,Jalisco,067,Puerto Vallarta,20.69620042941177,-105.18802999999997,20.613611,-105.227222,3,3,3,3,3,3,3,3,3,3,5,5,5,5,5,5,5,5,6,6,6,6
14,Jalisco,068,Villa Purificación,19.78516833432836,-104.70699245671649,19.719167,-104.605,0,0,0,0,0,0,0,0,0,0,0,0,0,0,0,0,0,0,0,0,0,0
14,Jalisco,069,Quitupan,19.793854686746982,-102.88028990361447,19.9275,-102.872222,0,0,0,0,0,0,0,0,0,0,0,0,0,0,0,0,0,0,0,0,0,0
14,Jalisco,070,El Salto,20.533612813559316,-103.21860349152544,20.564444,-103.302222,0,0,0,0,0,0,0,0,0,0,0,0,0,0,0,0,0,0,0,0,0,0
14,Jalisco,071,San Cristóbal de la Barranca,21.05594249732621,-103.45939390909095,21.044444,-103.429167,0,0,0,0,0,0,0,0,0,0,0,0,0,0,0,0,0,0,0,0,0,0
14,Jalisco,072,San Diego de Alejandría,20.972780352941186,-102.03360893277312,20.993056,-101.993611,0,0,0,0,0,0,0,0,0,0,0,0,0,0,0,0,0,0,0,0,0,0
14,Jalisco,073,San Juan de los Lagos,21.269520128813564,-102.29765518644075,21.247778,-102.332778,0,0,0,0,0,0,0,0,0,0,0,0,0,0,0,0,0,0,0,0,0,0
14,Jalisco,074,San Julián,20.991090101265815,-102.16236825316454,21.009722,-102.180833,0,0,0,0,0,0,0,0,0,0,0,0,0,0,0,0,0,0,1,1,1,1
14,Jalisco,075,San Marcos,20.80326696385542,-104.23522936144577,20.79,-104.1975,0,0,0,0,0,0,0,0,0,0,0,0,0,0,0,0,0,0,0,0,0,0
14,Jalisco,076,San Martín de Bolaños,21.607240227979272,-103.8049925906736,21.683611,-103.814167,0,0,0,0,0,0,0,0,0,0,0,0,0,0,0,0,0,0,0,0,0,0
14,Jalisco,077,San Martín Hidalgo,20.438026626666666,-103.91502026666663,20.435,-103.928611,0,0,0,0,0,0,0,0,0,0,0,0,0,0,0,0,0,0,0,0,0,0
14,Jalisco,078,San Miguel el Alto,20.991124641666662,-102.3644130416667,21.030556,-102.398056,0,0,0,0,0,0,0,0,0,0,0,0,0,0,0,0,0,0,0,0,0,0
14,Jalisco,079,Gómez Farías,19.830884711538463,-103.44436061538468,19.794444,-103.473056,0,0,0,0,0,0,0,0,0,0,0,0,0,0,0,0,0,0,0,0,0,0
14,Jalisco,080,San Sebastián del Oeste,20.85132151219511,-104.82052701219511,20.901465,-104.721847,0,0,0,0,0,0,0,0,0,0,0,0,0,0,0,0,0,0,0,0,0,0
14,Jalisco,081,Santa María de los Ángeles,22.19274986956522,-103.18858854347828,22.173333,-103.223056,0,0,0,0,0,0,0,0,0,0,0,0,0,0,0,0,0,0,0,0,0,0
14,Jalisco,082,Sayula,19.876994883928575,-103.57351780357145,19.883611,-103.597222,0,0,0,0,0,0,0,0,0,0,0,0,0,0,0,0,0,0,0,0,0,0
14,Jalisco,083,Tala,20.59373075384615,-103.6818495589744,20.6525,-103.702778,0,0,0,0,0,0,0,0,0,0,0,0,0,0,0,0,0,0,0,0,0,0
14,Jalisco,084,Talpa de Allende,20.284192034965027,-104.91435293706293,20.381389,-104.818056,0,0,0,0,0,0,0,0,0,0,0,0,0,0,0,0,0,0,0,0,0,0
14,Jalisco,085,Tamazula de Gordiano,19.656799250746264,-103.16838660298515,19.676389,-103.25,0,0,0,0,0,0,0,0,0,0,0,0,0,0,0,0,0,0,0,0,0,0
14,Jalisco,086,Tapalpa,19.95100667914438,-103.73745878074871,19.945556,-103.754167,0,0,0,0,0,0,0,0,0,0,0,0,0,0,0,0,0,0,0,0,0,0
14,Jalisco,087,Tecalitlán,19.264102867647043,-103.20960131764696,19.469444,-103.306667,0,0,0,0,0,0,0,0,0,0,0,0,0,0,0,0,0,0,0,0,0,0
14,Jalisco,088,Tecolotlán,20.218249753846155,-104.01982824615384,20.203611,-104.045,0,0,0,0,1,1,1,1,1,1,1,1,1,1,1,1,1,1,1,1,1,1
14,Jalisco,089,Techaluta de Montenegro,20.09161343333334,-103.56565173333335,20.074167,-103.551667,0,0,0,0,0,0,0,0,0,0,0,0,0,0,0,0,0,0,0,0,0,0
14,Jalisco,090,Tenamaxtlán,20.163075222222215,-104.17154693055556,20.218611,-104.160278,0,0,0,0,0,0,0,0,0,0,0,0,0,0,0,0,0,0,0,0,0,0
14,Jalisco,091,Teocaltiche,21.47173800348432,-102.54373250522656,21.434444,-102.570278,0,0,0,0,0,0,0,0,0,0,0,0,0,0,0,0,0,0,0,0,0,0
14,Jalisco,092,Teocuitatlán de Corona,20.101660522727265,-103.35022615909092,20.093333,-103.38,0,0,0,0,0,0,0,0,0,0,0,0,0,0,0,0,0,0,0,0,0,0
14,Jalisco,093,Tepatitlán de Morelos,20.83382465100671,-102.72114882774044,20.8175,-102.757222,0,0,0,0,0,0,0,0,0,0,0,0,0,0,0,0,0,0,0,0,0,0
14,Jalisco,094,Tequila,21.080000939473667,-103.7654554157895,20.879444,-103.835556,1,1,1,1,1,1,1,1,1,1,1,1,1,1,1,1,1,1,1,1,1,1
14,Jalisco,095,Teuchitlán,20.673992351851844,-103.83533775925925,20.685278,-103.849167,0,0,0,0,0,0,0,0,0,0,0,0,0,0,0,0,0,0,0,0,0,0
14,Jalisco,096,Tizapán el Alto,20.125481439024398,-103.07627509756098,20.158611,-103.039167,0,0,0,0,0,0,0,0,0,0,0,0,0,0,0,0,0,0,0,0,0,0
14,Jalisco,097,Tlajomulco de Zúñiga,20.48919803539823,-103.41743331858403,20.518056,-103.380556,0,0,0,0,0,0,0,1,1,1,1,1,1,2,2,2,2,2,2,2,2,3
14,Jalisco,098,San Pedro Tlaquepaque,20.57887,-103.35109511764705,20.638611,-103.307222,0,0,0,0,0,0,0,0,0,0,0,0,0,0,0,0,0,0,0,0,0,0
14,Jalisco,099,Tolimán,19.57528675641026,-103.90694484615386,19.610556,-103.766944,0,0,0,0,0,0,0,0,0,0,0,0,0,0,0,0,0,0,0,0,0,0
14,Jalisco,100,Tomatlán,19.982467125000003,-105.20001772826078,19.941389,-105.245278,1,1,1,1,1,1,1,1,2,2,2,2,2,2,2,2,2,2,2,2,2,2
14,Jalisco,101,Tonalá,20.61299532467532,-103.20010368831164,20.623333,-103.245556,1,1,1,1,1,1,1,1,1,1,1,2,2,3,3,3,3,3,2,2,2,2
14,Jalisco,102,Tonaya,19.824352129629627,-103.9667047777778,19.784167,-103.970833,0,0,0,0,0,0,0,0,0,0,0,0,0,0,0,0,0,0,0,0,0,0
14,Jalisco,103,Tonila,19.42832978571429,-103.53148603571432,19.446111,-103.506389,0,0,0,0,0,0,0,0,0,0,0,0,0,0,0,0,0,0,0,0,0,0
14,Jalisco,104,Totatiche,21.94058050387596,-103.47592567441862,21.977109,-103.524329,0,0,0,0,0,0,0,0,0,0,0,0,0,0,0,0,0,0,0,0,0,0
14,Jalisco,105,Tototlán,20.539752556818176,-102.7395351477273,20.543611,-102.789167,0,0,0,0,0,0,0,0,0,0,0,0,0,0,0,0,0,0,0,0,0,0
14,Jalisco,106,Tuxcacuesco,19.695855899999998,-104.00870195,19.697222,-103.983611,0,0,0,0,0,0,0,0,0,0,0,0,0,0,0,0,0,0,0,0,0,0
14,Jalisco,107,Tuxcueca,20.15438502272727,-103.22998174999998,20.195,-103.302222,0,0,0,0,0,0,0,0,0,0,0,0,0,0,0,0,0,0,0,0,0,0
14,Jalisco,108,Tuxpan,19.491318072538856,-103.42783298963728,19.554444,-103.372222,0,0,0,0,0,0,0,0,0,0,0,0,0,0,0,0,0,0,0,0,0,0
14,Jalisco,109,Unión de San Antonio,21.160491155251137,-101.99337330136989,21.128056,-102.007222,0,0,0,0,0,0,0,0,0,0,0,0,0,0,0,0,0,0,0,0,0,0
14,Jalisco,110,Unión de Tula,19.96867721138212,-104.26750239024388,19.954444,-104.264444,0,0,0,0,0,0,0,0,0,0,0,0,0,0,0,0,0,0,0,0,0,0
14,Jalisco,111,Valle de Guadalupe,21.052491818965514,-102.63935747413791,21.010556,-102.617778,0,0,0,0,0,0,0,0,0,0,0,0,0,0,0,0,0,0,0,0,0,0
14,Jalisco,112,Valle de Juárez,19.83846301666667,-102.97317443333331,19.933611,-102.940278,0,0,0,0,0,0,0,0,0,0,0,0,0,0,0,0,0,0,0,0,0,0
14,Jalisco,113,San Gabriel,19.712687848101254,-103.75062403797469,19.7475,-103.765278,0,0,0,0,0,0,0,0,0,0,0,0,0,0,0,0,0,0,0,0,0,0
14,Jalisco,114,Villa Corona,20.395607021276597,-103.68951168085106,20.416389,-103.661389,0,0,0,0,0,0,0,0,0,0,0,0,0,0,0,0,0,0,0,0,0,0
14,Jalisco,115,Villa Guerrero,22.010375410112367,-103.66178534831457,21.983056,-103.596667,0,0,0,0,0,0,0,0,0,0,0,0,0,0,0,0,0,0,0,0,0,0
14,Jalisco,116,Villa Hidalgo,21.665015755319143,-102.5753483510638,21.674444,-102.585278,0,0,0,0,0,0,0,0,0,0,0,0,0,0,0,0,0,0,0,0,0,0
14,Jalisco,117,Cañadas de Obregón,21.150329990990993,-102.69819977477478,21.148611,-102.685278,0,0,0,0,0,0,0,0,0,0,0,0,0,0,0,0,0,0,0,0,0,0
14,Jalisco,118,Yahualica de González Gallo,21.137994534090904,-102.91960370833333,21.1825,-102.887222,0,0,0,0,0,0,0,0,0,0,0,0,0,0,0,0,0,0,0,0,0,0
14,Jalisco,119,Zacoalco de Torres,20.232994145454544,-103.57442414545456,20.228611,-103.565278,0,0,0,0,0,0,0,0,0,0,0,0,0,0,0,0,0,0,0,0,0,0
14,Jalisco,120,Zapopan,20.795127977077364,-103.49775716618902,20.720556,-103.388333,0,0,0,0,0,0,0,0,0,0,0,0,0,0,0,0,0,0,1,1,1,1
14,Jalisco,121,Zapotiltic,19.6179334117647,-103.35201532352941,19.625556,-103.4125,0,0,0,0,0,0,0,0,0,0,0,0,0,0,0,0,0,0,0,0,0,0
14,Jalisco,122,Zapotitlán de Vadillo,19.513276255319152,-103.78898240425534,19.5475,-103.809167,0,0,0,0,0,0,0,0,0,0,0,0,0,0,0,0,0,0,0,0,0,0
14,Jalisco,123,Zapotlán del Rey,20.453548105691052,-102.91779609756098,20.466389,-102.926111,0,0,0,0,0,0,0,0,0,0,0,0,0,0,0,0,0,1,1,1,1,1
14,Jalisco,124,Zapotlanejo,20.623639689516136,-103.04524367338705,20.6225,-103.064167,0,0,0,0,0,0,0,0,0,0,0,0,0,0,0,0,0,0,0,0,0,0
14,Jalisco,125,San Ignacio Cerro Gordo,20.760579685393257,-102.51081558426966,20.743056,-102.536111,0,0,0,0,0,0,0,0,0,0,0,0,0,0,0,0,0,0,0,0,0,0
15,México,001,Acambay de Ruíz Castañeda,19.972583207920792,-99.88184718811883,19.937252,-99.915338,0,0,0,0,0,0,0,0,0,0,0,0,0,0,0,0,0,0,0,0,0,0
15,México,002,Acolman,19.639285419354838,-98.91885445161292,19.61259,-98.937316,0,0,0,0,0,0,0,0,0,0,0,0,0,0,0,0,0,0,0,0,0,0
15,México,003,Aculco,20.11236405714286,-99.82545884285712,20.163502,-99.896503,0,0,0,0,0,0,0,0,0,0,0,0,0,0,0,0,0,0,0,0,0,0
15,México,004,Almoloya de Alquisiras,18.84228736842105,-99.86427405263154,18.867233,-99.8938,0,0,0,0,0,0,0,0,0,0,0,0,0,0,0,0,0,0,0,0,0,0
15,México,005,Almoloya de Juárez,19.398241477477473,-99.81764439639639,19.293397,-99.768395,0,0,0,0,0,0,0,0,1,1,1,1,1,1,1,1,1,1,1,1,1,1
15,México,006,Almoloya del Río,19.155878,-99.48005624999999,19.159386,-99.488842,0,0,0,0,0,0,0,0,0,0,0,0,0,0,0,0,0,0,0,0,0,0
15,México,007,Amanalco,19.262047451612904,-99.99935022580645,19.248434,-100.030291,0,0,0,0,0,0,0,0,0,1,1,1,1,1,1,1,1,1,1,1,1,1
15,México,008,Amatepec,18.70520445876289,-100.28950850515461,18.696534,-100.369477,0,0,0,0,0,0,0,0,0,0,0,0,0,0,0,0,0,0,0,0,0,0
15,México,009,Amecameca,19.11563309433963,-98.76218698113206,19.128685,-98.769811,0,0,0,0,0,0,0,0,0,0,0,0,0,0,0,0,0,0,0,0,0,0
15,México,010,Apaxco,19.96704094736842,-99.16819584210525,19.975325,-99.174163,0,0,0,0,0,0,0,0,0,0,0,0,0,0,0,0,0,0,0,0,0,0
15,México,011,Atenco,19.56571213333333,-98.9326502,19.559339,-98.913348,0,0,0,0,0,0,0,0,0,0,0,0,0,0,1,1,1,1,1,2,2,2
15,México,012,Atizapán,19.1777325,-99.49499683333333,19.176758,-99.487942,0,0,0,0,0,1,1,1,1,1,2,2,2,2,2,2,2,2,2,2,2,2
15,México,013,Atizapán de Zaragoza,19.559390285714283,-99.28491371428572,19.543171,-99.235041,4,5,5,5,5,5,6,7,7,7,8,8,11,11,11,11,11,12,13,13,14,14
15,México,014,Atlacomulco,19.814007536231887,-99.86123500000001,19.800029,-99.874254,0,0,1,1,1,1,1,1,1,2,2,2,2,2,2,2,2,2,3,3,3,3
15,México,015,Atlautla,19.021171499999998,-98.75715234210527,19.030861,-98.782666,0,0,0,0,0,0,0,0,0,0,0,0,1,1,1,1,1,1,1,1,1,1
15,México,016,Axapusco,19.77109008163265,-98.73173520408162,19.729444,-98.634089,0,0,0,0,0,0,0,0,0,0,0,0,0,0,0,0,0,0,0,0,0,0
15,México,017,Ayapango,19.12772393548387,-98.79986667741936,19.127221,-98.802506,0,0,0,0,0,0,0,0,0,0,0,0,0,0,0,0,0,0,0,0,0,0
15,México,018,Calimaya,19.176220857142862,-99.61156877142858,19.163225,-99.618665,0,0,0,0,0,0,0,0,0,0,0,0,0,0,0,0,0,0,0,0,0,0
15,México,019,Capulhuac,19.214413941176478,-99.46196264705881,19.193123,-99.464408,0,0,0,0,0,0,0,0,0,0,0,1,1,1,1,1,1,1,1,1,1,1
15,México,020,Coacalco de Berriozábal,19.616335,-99.09916725,19.629299,-99.104377,0,1,1,1,1,2,2,2,3,3,3,3,4,4,4,4,4,4,4,4,4,5
15,México,021,Coatepec Harinas,18.937581950819666,-99.79131952459015,18.925711,-99.768519,0,0,0,0,0,0,0,0,0,0,0,0,0,0,0,0,0,0,0,0,0,0
15,México,022,Cocotitlán,19.226946454545452,-98.85881281818182,19.230856,-98.861952,0,0,0,0,0,0,0,0,0,0,0,0,0,0,0,0,0,0,0,0,0,0
15,México,023,Coyotepec,19.79024516666667,-99.21043266666668,19.775508,-99.20798,0,0,0,0,0,0,0,0,0,1,1,1,1,1,1,1,2,3,3,3,3,3
15,México,024,Cuautitlán,19.717405666666668,-99.15539593333331,19.665061,-99.17863,0,0,0,1,1,1,1,1,1,1,2,2,2,2,3,3,3,4,4,4,4,4
15,México,025,Chalco,19.24455390277778,-98.86517697222223,19.261132,-98.895655,2,2,2,2,2,2,2,2,4,3,3,3,3,4,4,6,9,11,11,11,11,12
15,México,026,Chapa de Mota,19.8249105,-99.55522947368424,19.857083,-99.610832,0,0,0,0,0,0,0,0,0,0,0,0,0,0,0,0,0,0,0,0,0,0
15,México,027,Chapultepec,19.201810181818185,-99.56060554545455,19.201163,-99.561873,0,0,0,0,0,0,0,0,0,0,0,0,0,0,0,0,0,0,0,0,0,0
15,México,028,Chiautla,19.573051,-98.885112,19.548652,-98.881349,0,0,0,0,0,0,0,0,0,0,0,0,0,0,0,0,0,0,0,0,0,0
15,México,029,Chicoloapan,19.40323147058823,-98.88174311764705,19.416765,-98.902012,0,0,0,0,0,0,0,0,0,0,0,0,0,0,0,0,0,0,0,0,0,0
15,México,030,Chiconcuac,19.5515945,-98.89674600000001,19.552722,-98.895307,0,0,0,0,0,0,0,0,0,0,0,0,0,0,0,0,0,0,0,0,0,0
15,México,031,Chimalhuacán,19.413982999999998,-98.95890166666668,19.416908,-98.945299,4,4,4,4,4,5,5,5,7,8,10,10,11,11,12,12,17,17,19,22,22,23
15,México,032,Donato Guerra,19.311577625000005,-100.1877994375,19.291071,-100.08715,0,0,0,0,0,0,0,0,0,0,0,0,0,0,0,0,0,0,0,0,0,0
15,México,033,Ecatepec de Morelos,19.5948314,-99.05543259999999,19.599069,-99.049159,3,3,3,3,3,6,6,6,12,12,14,18,18,18,19,20,23,26,28,29,30,33
15,México,034,Ecatzingo,18.963547,-98.76515729999998,18.958715,-98.752598,0,0,0,0,0,0,0,0,0,0,0,0,0,0,0,0,0,0,0,0,0,0
15,México,035,Huehuetoca,19.83396477777778,-99.2271903703704,19.841286,-99.240549,0,0,0,0,0,0,0,0,0,0,0,0,0,0,0,0,0,0,0,0,0,0
15,México,036,Hueypoxtla,19.942409636363635,-99.02073236363636,19.977759,-99.043778,0,0,0,0,0,0,0,0,0,0,0,0,0,0,0,0,0,0,0,0,0,0
15,México,037,Huixquilucan,19.382020491525424,-99.34331850847461,19.405933,-99.279612,0,1,1,1,1,1,1,1,3,3,3,3,3,3,3,3,3,3,3,3,3,3
15,México,038,Isidro Fabela,19.563518666666667,-99.40818827777778,19.555591,-99.41738,0,0,0,0,0,0,0,0,0,0,0,0,0,0,0,0,0,0,0,0,0,0
15,México,039,Ixtapaluca,19.34218364912281,-98.82601403508772,19.313104,-98.884247,4,5,5,5,5,5,5,5,5,5,5,5,6,6,6,6,6,7,7,7,8,8
15,México,040,Ixtapan de la Sal,18.85164155882353,-99.68683758823529,18.844606,-99.675823,0,0,0,0,0,0,0,0,0,0,0,0,0,0,0,0,0,0,0,0,0,0
15,México,041,Ixtapan del Oro,19.257463899999998,-100.27890485000002,19.301653,-100.293216,0,0,0,0,0,0,0,0,0,0,0,0,0,0,0,0,0,0,0,0,0,0
15,México,042,Ixtlahuaca,19.596491951612897,-99.80813691935488,19.590445,-99.741491,0,0,1,1,1,1,1,2,2,2,4,4,5,5,5,6,7,8,9,9,9,9
15,México,043,Xalatlaco,19.168217700000003,-99.39092285000001,19.184387,-99.413736,0,0,0,0,0,0,0,0,0,0,0,0,0,0,0,0,0,0,0,0,0,0
15,México,044,Jaltenco,19.7072975,-99.08241749999999,19.662374,-99.070804,0,0,0,0,0,0,0,0,0,0,0,0,0,0,0,0,0,0,0,0,0,0
15,México,045,Jilotepec,20.005951848484855,-99.59343896969698,19.952834,-99.532829,0,0,0,0,0,0,0,0,0,0,0,0,0,0,0,0,0,0,0,0,0,1
15,México,046,Jilotzingo,19.520195476190473,-99.38357847619048,19.49596,-99.363022,0,0,0,0,0,0,0,0,0,0,0,0,0,0,0,0,0,0,0,0,0,0
15,México,047,Jiquipilco,19.583898765432103,-99.64713456790126,19.620805,-99.614833,0,0,0,0,0,0,0,0,0,0,0,0,0,0,0,0,0,0,0,0,0,0
15,México,048,Jocotitlán,19.70756936507937,-99.80220131746029,19.711818,-99.785798,0,0,0,0,0,0,0,0,0,1,1,1,1,1,1,1,1,1,1,1,1,1
15,México,049,Joquicingo,19.06333223076923,-99.52588815384614,19.112721,-99.524599,0,0,0,0,0,0,0,0,0,0,0,0,0,0,0,0,0,0,0,0,0,0
15,México,050,Juchitepec,19.099027862068965,-98.8727915862069,19.101912,-98.880916,0,0,0,0,0,0,0,0,0,0,0,0,0,0,0,0,0,0,0,0,0,0
15,México,051,Lerma,19.35509691304348,-99.47222427536231,19.285373,-99.511817,0,0,0,0,0,0,0,0,0,0,0,0,0,0,0,0,0,0,0,0,0,0
15,México,052,Malinalco,18.890182428571432,-99.48195947619048,18.952342,-99.497565,0,0,0,0,0,0,0,0,0,0,0,0,0,0,0,0,0,0,0,0,0,0
15,México,053,Melchor Ocampo,19.713512636363635,-99.13584127272729,19.710414,-99.143458,0,0,0,0,0,0,0,0,0,0,0,0,1,1,1,1,1,1,1,1,1,1
15,México,054,Metepec,19.239511304347833,-99.58963595652172,19.271403,-99.579379,0,0,1,1,1,1,1,1,1,1,1,1,1,1,1,1,1,1,1,1,1,1
15,México,055,Mexicaltzingo,19.209893,-99.58185625000002,19.211109,-99.586854,0,0,0,0,0,0,0,0,0,0,0,0,0,0,0,0,0,0,0,0,0,0
15,México,056,Morelos,19.746072872340424,-99.6468994468085,19.721755,-99.60865,0,0,0,0,0,0,0,0,0,0,0,0,1,1,1,1,1,1,1,1,1,1
15,México,057,Naucalpan de Juárez,19.464215034482763,-99.32694627586204,19.478803,-99.233218,3,3,3,4,4,4,4,4,4,6,6,7,8,8,9,10,11,12,12,13,13,14
15,México,058,Nezahualcóyotl,19.423067833333334,-99.0161465,19.408763,-99.0182,5,5,5,6,9,11,12,14,16,19,19,20,20,20,20,21,22,25,25,29,30,32
15,México,059,Nextlalpan,19.730485535714287,-99.08542925000002,19.739866,-99.080338,0,0,0,0,0,0,0,0,0,0,0,0,0,0,0,0,0,0,0,0,0,0
15,México,060,Nicolás Romero,19.640157400000003,-99.37785375555555,19.625715,-99.315898,4,5,5,5,5,5,5,6,6,6,6,6,6,6,7,7,10,11,12,13,14,15
15,México,061,Nopaltepec,19.804519461538458,-98.70978523076923,19.803111,-98.701834,0,0,0,0,0,0,0,0,0,0,0,0,0,0,0,0,0,0,0,0,0,0
15,México,062,Ocoyoacac,19.27296858536586,-99.43624668292681,19.269281,-99.455695,0,0,0,0,0,0,0,0,0,1,1,1,1,1,1,1,1,1,1,1,1,1
15,México,063,Ocuilan,18.98978868,-99.40932776000001,18.991377,-99.425751,0,0,0,0,0,0,0,0,0,0,0,0,0,0,0,0,0,0,0,0,0,0
15,México,064,El Oro,19.79118233333333,-100.0757821111111,19.802143,-100.130665,0,0,0,0,0,0,0,0,0,0,0,0,0,0,0,0,1,1,1,1,1,1
15,México,065,Otumba,19.671596979166665,-98.75062385416665,19.699854,-98.757694,0,0,0,0,0,0,0,0,0,0,0,0,0,0,0,0,0,0,0,1,2,3
15,México,066,Otzoloapan,19.113641666666666,-100.33270061111112,19.117408,-100.297712,0,0,0,0,0,0,0,0,0,0,0,0,0,0,0,0,0,0,0,0,0,0
15,México,067,Otzolotepec,19.436638026315787,-99.54203315789472,19.416206,-99.558589,0,0,0,0,0,0,0,0,0,0,0,0,0,1,1,1,1,1,1,1,1,1
15,México,068,Ozumba,19.006339263157894,-98.81015857894737,19.039177,-98.795389,0,0,0,0,0,0,0,0,0,0,0,0,0,0,0,0,0,0,0,0,0,0
15,México,069,Papalotla,19.558931666666666,-98.857147,19.563378,-98.858209,0,0,0,0,0,0,0,0,0,0,0,0,0,0,0,0,0,0,0,0,0,0
15,México,070,La Paz,19.36353647368421,-98.94300300000002,19.358387,-98.976602,1,1,1,1,1,1,2,2,2,4,5,5,5,6,6,6,6,7,7,7,7,7
15,México,071,Polotitlán,20.219918620689654,-99.82231313793106,20.223809,-99.814745,0,0,0,0,0,0,0,0,0,0,0,0,0,0,0,0,0,0,0,0,0,0
15,México,072,Rayón,19.136649777777777,-99.57421266666667,19.148011,-99.581739,0,0,0,0,0,0,0,0,0,0,0,0,0,0,0,0,0,0,0,0,0,0
15,México,073,San Antonio la Isla,19.173807857142858,-99.5576097142857,19.164099,-99.569336,0,0,0,0,0,0,0,0,0,0,0,0,0,0,0,0,0,0,0,0,0,0
15,México,074,San Felipe del Progreso,19.660688211538456,-99.98074315384612,19.614986,-100.030727,0,0,1,1,1,1,1,1,1,1,1,1,1,1,1,1,1,1,1,1,1,1
15,México,075,San Martín de las Pirámides,19.716977047619046,-98.83032223809525,19.704843,-98.834524,0,0,0,0,0,0,0,0,0,0,0,0,0,0,0,0,0,0,0,0,0,0
15,México,076,San Mateo Atenco,19.262315333333333,-99.54399366666667,19.264167,-99.529722,0,0,0,0,0,0,0,0,0,0,0,0,0,0,0,0,0,0,0,0,0,0
15,México,077,San Simón de Guerrero,18.979155586206893,-100.03785134482759,19.023089,-100.007278,0,0,0,0,0,0,0,0,0,0,0,0,0,0,0,0,0,0,0,0,0,0
15,México,078,Santo Tomás,19.179182527777776,-100.28474102777778,19.180303,-100.259603,0,0,0,0,0,0,0,0,0,0,0,0,0,0,0,0,0,0,0,0,0,0
15,México,079,Soyaniquilpan de Juárez,20.039201562500004,-99.49404856250001,20.013891,-99.527896,0,0,0,0,0,0,0,0,0,0,0,0,0,0,0,0,1,1,1,1,1,1
15,México,080,Sultepec,18.750241687499997,-99.9818412625,18.858546,-99.96643,0,0,0,0,0,0,0,0,0,0,0,0,0,0,0,0,1,1,1,1,1,1
15,México,081,Tecámac,19.720483545454545,-98.96937967272726,19.678303,-98.997619,2,2,2,2,2,2,2,2,2,4,4,4,4,5,6,7,7,9,10,11,11,11
15,México,082,Tejupilco,18.861911744565223,-100.23070290760869,18.905696,-100.153403,0,0,0,0,0,0,0,0,0,0,0,0,0,0,0,0,0,0,0,0,0,0
15,México,083,Temamatla,19.19931655555556,-98.87524714814816,19.202741,-98.869902,0,0,0,0,0,0,0,0,0,0,0,0,0,0,0,0,0,0,0,0,0,0
15,México,084,Temascalapa,19.81470975862069,-98.87941910344826,19.827858,-98.900832,0,0,0,0,0,0,0,0,0,0,0,0,0,0,0,0,0,0,0,0,0,0
15,México,085,Temascalcingo,19.91590315151515,-100.03202854545457,19.915911,-100.004081,0,0,0,0,0,0,0,0,0,0,0,0,0,0,0,0,0,0,0,0,0,0
15,México,086,Temascaltepec,19.064637499999996,-99.98667307575758,19.043075,-100.041359,0,0,0,0,0,0,0,0,0,0,0,0,0,0,0,0,0,0,0,0,0,0
15,México,087,Temoaya,19.47095639062499,-99.59842360937499,19.484334,-99.564289,0,0,0,0,0,0,0,0,0,0,0,0,0,0,1,1,1,1,2,2,2,2
15,México,088,Tenancingo,18.96075180327869,-99.57556859016393,18.96183,-99.593842,0,0,0,0,0,0,0,0,0,0,0,0,0,1,1,1,1,1,1,1,1,1
15,México,089,Tenango del Aire,19.161519480000003,-98.86061232,19.157003,-98.861296,0,0,0,0,0,0,0,0,0,0,0,0,0,0,0,0,0,0,0,0,0,0
15,México,090,Tenango del Valle,19.084054470588235,-99.6047999215686,19.103761,-99.591575,0,0,0,0,0,0,0,0,0,0,1,1,1,1,1,1,1,1,1,1,1,1
15,México,091,Teoloyucan,19.760247666666668,-99.181371,19.745466,-99.183065,0,1,1,1,1,1,1,1,1,1,1,1,1,1,1,1,1,1,1,1,1,1
15,México,092,Teotihuacán,19.6888651,-98.8708083,19.685479,-98.868628,0,0,0,0,0,0,0,0,0,0,0,1,1,1,1,1,1,1,1,1,1,1
15,México,093,Tepetlaoxtoc,19.567359675,-98.79546477499999,19.573365,-98.819719,0,0,0,0,0,0,0,0,0,0,0,0,0,0,0,0,0,0,0,0,1,1
15,México,094,Tepetlixpa,19.00615516,-98.83042775999998,19.029515,-98.819708,0,0,0,0,0,0,0,0,0,0,0,1,1,1,1,1,1,2,2,2,2,2
15,México,095,Tepotzotlán,19.716464953488376,-99.28127976744187,19.713778,-99.223514,0,0,0,0,0,0,1,1,1,1,1,1,1,1,1,1,1,1,1,1,1,1
15,México,096,Tequixquiac,19.911680499999996,-99.12459721428571,19.910277,-99.148913,0,0,0,0,0,0,0,0,0,0,0,0,0,0,0,0,0,0,0,0,0,0
15,México,097,Texcaltitlán,18.939713171428572,-99.93790240000001,18.930389,-99.939277,0,0,0,0,0,0,0,0,0,0,0,0,0,0,0,0,0,0,0,0,0,0
15,México,098,Texcalyacac,19.134319999999995,-99.5016206,19.132228,-99.503069,0,0,0,0,0,0,0,0,0,0,0,0,0,0,0,0,0,0,0,0,0,0
15,México,099,Texcoco,19.49288267647059,-98.86583412745101,19.51344,-98.881484,0,0,0,0,0,0,0,0,1,1,1,1,1,1,2,2,3,3,6,6,6,6
15,México,100,Tezoyuca,19.59279128571428,-98.92416935714287,19.590313,-98.908504,0,0,0,0,0,0,0,0,0,0,0,0,0,0,0,0,0,0,0,0,0,0
15,México,101,Tianguistenco,19.16488647368421,-99.44768534210526,19.181214,-99.467439,0,0,0,0,0,0,0,0,0,0,0,0,0,0,0,0,0,0,0,0,0,0
15,México,102,Timilpan,19.880252999999996,-99.72534048148148,19.820608,-99.763973,0,0,0,0,0,0,0,0,0,0,0,0,0,0,0,0,0,0,0,0,0,0
15,México,103,Tlalmanalco,19.19725065306122,-98.7926846734694,19.209688,-98.756152,0,0,0,0,0,0,0,0,0,0,0,0,0,0,0,0,0,1,1,1,1,1
15,México,104,Tlalnepantla de Baz,19.5600234,-99.1312722,19.538523,-99.195198,1,1,1,1,1,1,1,1,5,5,5,7,7,8,8,8,8,9,9,10,13,14
15,México,105,Tlatlaya,18.56201611666666,-100.24899256666663,18.582939,-100.305071,0,0,0,0,0,0,0,0,0,0,0,0,0,0,0,0,0,0,0,0,0,0
15,México,106,Toluca,19.33108212068965,-99.65485061206894,19.293488,-99.657317,0,0,0,1,1,1,1,1,1,2,3,3,3,3,3,4,4,6,6,6,6,6
15,México,107,Tonatico,18.78769447368421,-99.64950478947368,18.802019,-99.670935,0,0,0,0,0,0,0,0,0,0,0,0,0,0,0,0,0,0,0,0,0,0
15,México,108,Tultepec,19.67919729411765,-99.11729341176469,19.685548,-99.128605,1,1,2,2,2,2,2,2,2,2,3,3,3,3,3,3,3,3,3,4,4,4
15,México,109,Tultitlán,19.62983708333333,-99.14072449999999,19.60828,-99.16695,0,1,2,2,2,3,3,3,3,4,4,4,4,4,5,5,5,7,8,9,9,10
15,México,110,Valle de Bravo,19.16887188,-100.10789573333332,19.194395,-100.131607,0,0,0,0,0,0,0,0,0,0,0,0,0,0,0,0,0,0,0,0,0,0
15,México,111,Villa de Allende,19.383764199999998,-100.12798313333336,19.38852,-100.106948,0,0,0,0,0,0,0,0,0,0,0,0,0,0,0,0,0,0,0,0,0,0
15,México,112,Villa del Carbón,19.729213549999997,-99.46145361666663,19.727588,-99.46308,0,0,0,0,0,0,0,0,0,0,0,0,0,0,0,0,0,0,0,0,0,0
15,México,113,Villa Guerrero,18.963327511627906,-99.67246295348838,18.961709,-99.642,0,0,0,0,0,0,0,0,0,0,0,0,0,0,0,0,0,0,0,0,0,0
15,México,114,Villa Victoria,19.46037238888888,-100.00096803703703,19.441876,-99.99505,0,0,0,0,0,0,0,0,0,0,0,0,0,0,0,0,0,0,0,0,0,0
15,México,115,Xonacatlán,19.427067190476194,-99.47903376190477,19.404419,-99.530396,0,0,0,0,0,0,0,0,0,0,1,1,1,1,1,1,1,1,1,1,1,1
15,México,116,Zacazonapan,19.05155809090909,-100.26551318181819,19.074457,-100.256116,0,0,0,0,0,0,0,0,0,0,0,0,0,0,0,0,0,0,0,0,0,0
15,México,117,Zacualpan,18.70194691891892,-99.81253724324323,18.71867,-99.775622,0,0,0,0,0,0,0,0,0,0,0,0,0,0,0,0,0,0,0,0,0,0
15,México,118,Zinacantepec,19.265368767857147,-99.77451080357143,19.284906,-99.735038,0,0,0,0,1,1,1,1,1,1,1,2,2,2,2,2,2,2,3,3,3,3
15,México,119,Zumpahuacán,18.835795806451618,-99.56350299999998,18.840928,-99.585596,0,0,0,0,0,0,0,0,0,0,0,0,0,0,0,0,0,0,0,0,0,0
15,México,120,Zumpango,19.812603074074072,-99.06303880246911,19.797123,-99.100634,0,1,2,2,3,3,3,3,3,3,4,4,4,4,4,4,4,4,5,5,5,5
15,México,121,Cuautitlán Izcalli,19.671291,-99.25322516666667,19.656996,-99.209286,0,0,0,0,0,0,0,0,2,3,3,3,4,4,5,6,7,7,7,7,7,8
15,México,122,Valle de Chalco Solidaridad,19.25455025,-98.95764825,19.278765,-98.943449,1,2,2,2,2,2,3,3,3,3,3,4,4,5,5,5,6,10,12,12,13,13
15,México,123,Luvianos,18.94535782432432,-100.4233983828829,18.920482,-100.299446,0,0,0,0,0,0,0,0,0,0,0,0,0,0,0,0,0,0,0,0,0,0
15,México,124,San José del Rincón,19.625116131034485,-100.13182383448279,19.719678,-100.133736,0,0,0,0,0,0,0,0,0,0,0,0,0,0,0,0,0,0,0,0,0,0
15,México,125,Tonanitla,19.684507999999997,-99.05812528571428,19.688162,-99.054362,0,0,0,0,0,0,0,0,0,0,0,0,0,0,0,0,0,0,0,0,0,0
16,Michoacán de Ocampo,001,Acuitzio,19.470674727272726,-101.32901054545454,19.496252,-101.332851,0,0,0,0,0,0,0,0,0,0,0,0,0,0,0,0,0,0,0,0,0,0
16,Michoacán de Ocampo,002,Aguililla,18.757443509090916,-102.7699437781817,18.734231,-102.78838,0,0,0,0,0,0,0,0,0,0,0,0,0,0,0,0,0,0,0,0,0,0
16,Michoacán de Ocampo,003,Álvaro Obregón,19.861804483870976,-101.02112551612908,19.826306,-101.038485,1,2,2,2,2,2,2,2,2,2,2,2,2,2,2,2,2,2,2,2,2,2
16,Michoacán de Ocampo,004,Angamacutiro,20.134544303030303,-101.72930869696968,20.149654,-101.708311,0,0,0,0,0,0,0,0,0,0,0,0,0,0,0,0,0,0,0,0,0,0
16,Michoacán de Ocampo,005,Angangueo,19.622103086956525,-100.30154295652174,19.619833,-100.285511,0,0,0,0,0,0,0,0,0,0,0,0,0,0,0,0,0,0,0,0,0,0
16,Michoacán de Ocampo,006,Apatzingán,18.989662979094064,-102.42379883623694,19.087227,-102.355264,0,0,0,0,0,0,0,0,0,0,0,0,0,0,0,0,0,0,0,0,0,1
16,Michoacán de Ocampo,007,Aporo,19.656759076923077,-100.39628746153845,19.670836,-100.411128,0,0,0,0,0,0,0,0,0,0,0,0,0,0,0,0,0,0,0,0,0,0
16,Michoacán de Ocampo,008,Aquila,18.38096623118281,-103.23391214157716,18.599139,-103.504754,0,0,0,0,0,0,0,0,0,0,0,0,0,0,0,0,0,0,0,0,0,0
16,Michoacán de Ocampo,009,Ario,19.16137308270676,-101.70839211278198,19.207807,-101.709394,0,0,0,0,0,0,0,0,0,0,0,0,0,0,0,0,0,0,0,0,0,0
16,Michoacán de Ocampo,010,Arteaga,18.323581648148142,-102.38197252263379,18.355694,-102.290063,1,1,1,1,1,1,1,1,1,1,1,1,1,1,1,1,1,1,1,1,1,1
16,Michoacán de Ocampo,011,Briseñas,20.251776181818183,-102.57031827272728,20.271234,-102.561058,0,0,0,0,0,0,0,0,0,0,0,0,0,0,0,0,0,0,0,0,0,0
16,Michoacán de Ocampo,012,Buenavista,19.187708411764703,-102.58281594117646,19.211735,-102.587891,0,0,0,0,0,0,0,0,0,0,0,0,0,0,0,0,0,0,0,0,0,0
16,Michoacán de Ocampo,013,Carácuaro,18.991780513274325,-101.0362140530973,19.017308,-101.126991,0,0,0,0,0,0,0,0,0,0,0,0,0,0,0,0,0,0,0,0,0,0
16,Michoacán de Ocampo,014,Coahuayana,18.732620464285713,-103.63932818749996,18.702474,-103.662931,0,0,0,0,0,0,0,0,0,0,0,0,0,0,0,0,0,0,0,0,0,0
16,Michoacán de Ocampo,015,Coalcomán de Vázquez Pallares,18.66905288141024,-103.1072413637821,18.777099,-103.159555,0,0,0,0,0,0,0,0,0,0,0,0,0,0,0,0,0,0,0,0,0,0
16,Michoacán de Ocampo,016,Coeneo,19.81275211627907,-101.61919162790696,19.820984,-101.583751,0,0,0,0,0,0,0,0,0,0,0,0,0,0,0,0,0,0,0,0,0,0
16,Michoacán de Ocampo,017,Contepec,19.954225424999997,-100.21261575000001,19.955269,-100.164457,0,0,0,0,0,0,0,0,0,0,0,0,0,0,0,0,0,0,0,0,0,0
16,Michoacán de Ocampo,018,Copándaro,19.888800555555555,-101.23955277777777,19.893824,-101.215305,0,0,0,0,0,0,0,0,0,0,0,0,0,0,0,0,0,0,0,0,0,0
16,Michoacán de Ocampo,019,Cotija,19.74783827659574,-102.70848942553184,19.810285,-102.705822,0,0,0,0,0,0,0,0,0,0,0,0,0,0,0,0,0,0,0,0,0,0
16,Michoacán de Ocampo,020,Cuitzeo,19.998281166666672,-101.14327143333331,19.968214,-101.139584,0,0,0,0,0,0,0,0,0,0,0,0,1,1,1,1,1,1,1,1,1,1
16,Michoacán de Ocampo,021,Charapan,19.666592200000004,-102.2346071,19.650169,-102.252738,0,0,0,0,0,0,0,0,0,0,0,0,0,0,0,0,0,0,0,0,0,0
16,Michoacán de Ocampo,022,Charo,19.660917565217385,-101.01337379347828,19.74667,-101.046313,0,0,0,0,0,0,0,0,0,0,0,0,0,0,0,0,0,0,0,0,0,0
16,Michoacán de Ocampo,023,Chavinda,20.04606457894737,-102.43922331578949,20.006939,-102.458585,0,0,0,0,0,0,0,0,0,0,0,0,0,0,0,0,0,0,0,0,0,0
16,Michoacán de Ocampo,024,Cherán,19.7200838,-102.0235241,19.687652,-101.954816,0,0,0,0,0,0,0,0,0,0,0,0,0,0,0,0,0,0,0,0,0,0
16,Michoacán de Ocampo,025,Chilchota,19.833927809523807,-102.09174157142859,19.849207,-102.119437,0,0,0,0,0,0,0,0,0,0,0,0,0,0,0,0,0,0,0,0,0,0
16,Michoacán de Ocampo,026,Chinicuila,18.72101743317972,-103.39165790322583,18.758168,-103.3678,0,0,0,0,0,0,0,0,0,0,0,0,0,0,0,0,0,0,0,0,0,0
16,Michoacán de Ocampo,027,Chucándiro,19.89149347619048,-101.34815166666667,19.899965,-101.333391,0,0,0,0,0,0,0,0,0,0,0,0,0,0,0,0,0,0,0,0,0,0
16,Michoacán de Ocampo,028,Churintzio,20.129745208333336,-102.07577212500001,20.15096,-102.065921,0,0,0,0,0,0,0,0,0,0,0,0,0,0,0,0,0,0,0,0,0,0
16,Michoacán de Ocampo,029,Churumuco,18.71030845054945,-101.60138570329667,18.664558,-101.646553,0,0,0,0,0,0,0,0,0,0,0,0,0,0,0,0,0,0,0,0,0,0
16,Michoacán de Ocampo,030,Ecuandureo,20.150698208333335,-102.22592454166666,20.162616,-102.194566,0,0,0,0,0,0,0,0,0,0,0,0,0,0,0,0,0,0,0,0,0,0
16,Michoacán de Ocampo,031,Epitacio Huerta,20.145111759036148,-100.28393073493976,20.134689,-100.293722,0,0,0,0,0,0,0,0,0,0,0,0,0,0,0,0,0,0,0,0,0,0
16,Michoacán de Ocampo,032,Erongarícuaro,19.594170555555554,-101.72020092592594,19.560833,-101.6775,0,0,0,0,0,0,0,0,0,0,0,0,0,0,1,1,1,1,1,1,1,1
16,Michoacán de Ocampo,033,Gabriel Zamora,19.17465111627907,-102.01460276744187,19.159804,-102.053965,0,0,0,0,0,0,0,0,0,0,0,0,0,0,0,0,0,0,0,0,0,0
16,Michoacán de Ocampo,034,Hidalgo,19.582334857575724,-100.67683591212123,19.689351,-100.555161,0,0,0,0,0,0,0,0,0,0,0,0,0,0,0,0,0,0,0,0,0,0
16,Michoacán de Ocampo,035,La Huacana,18.886884524390243,-101.8738737317073,18.962887,-101.808867,0,0,0,0,0,0,0,0,0,0,0,0,0,0,0,0,0,0,0,0,0,0
16,Michoacán de Ocampo,036,Huandacareo,19.977723647058824,-101.28487799999999,19.988704,-101.275853,0,0,0,0,0,0,0,0,0,0,0,0,0,0,0,0,0,0,0,0,0,0
16,Michoacán de Ocampo,037,Huaniqueo,19.8942936,-101.51241200000001,19.898995,-101.505151,0,0,0,0,0,0,0,0,0,0,0,0,0,0,0,0,0,0,0,0,0,0
16,Michoacán de Ocampo,038,Huetamo,18.652946797752797,-101.06428410112362,18.626426,-100.899725,0,0,0,0,0,0,0,0,0,0,0,0,0,0,0,0,0,0,0,0,0,0
16,Michoacán de Ocampo,039,Huiramba,19.525225149999997,-101.4619812,19.546481,-101.437993,0,0,0,0,0,0,0,0,0,0,0,0,0,0,0,0,0,0,0,0,0,0
16,Michoacán de Ocampo,040,Indaparapeo,19.76666710416666,-100.94847218749999,19.790059,-100.968493,0,0,0,0,0,0,0,0,0,0,0,0,0,0,0,0,0,0,0,0,0,0
16,Michoacán de Ocampo,041,Irimbo,19.709987047619045,-100.46371709523811,19.697488,-100.479101,0,0,0,0,0,0,0,0,0,0,0,0,0,0,0,0,0,0,0,0,0,0
16,Michoacán de Ocampo,042,Ixtlán,20.142743078947372,-102.41346139473684,20.168366,-102.394624,0,0,0,0,0,0,0,0,0,0,0,0,0,0,0,0,0,0,0,0,0,0
16,Michoacán de Ocampo,043,Jacona,19.949359112903238,-102.31871469354842,19.956322,-102.306023,0,0,0,0,0,0,0,0,0,0,0,0,0,0,0,0,0,0,0,0,0,0
16,Michoacán de Ocampo,044,Jiménez,19.924049241379308,-101.72955699999999,19.922266,-101.749293,0,0,0,0,0,0,0,0,0,0,0,0,0,0,0,0,0,0,0,0,0,0
16,Michoacán de Ocampo,045,Jiquilpan,19.984383384615395,-102.75358636538466,19.989719,-102.718563,0,0,0,0,0,0,0,0,0,0,0,0,0,0,0,0,0,0,1,1,1,1
16,Michoacán de Ocampo,046,Juárez,19.303583921568638,-100.43452043137255,19.312276,-100.432791,0,0,0,0,0,0,0,0,0,0,0,0,0,0,0,0,0,0,0,0,0,0
16,Michoacán de Ocampo,047,Jungapeo,19.449448116279065,-100.5156660930233,19.458725,-100.494612,0,0,0,0,0,0,0,0,0,0,0,0,0,0,0,0,0,0,0,0,0,0
16,Michoacán de Ocampo,048,Lagunillas,19.570603666666667,-101.41919766666668,19.564623,-101.414779,0,0,0,0,0,0,0,0,0,0,0,0,0,0,0,0,0,0,0,0,0,0
16,Michoacán de Ocampo,049,Madero,19.33641600591717,-101.15477374852071,19.392121,-101.277616,0,0,0,0,0,0,0,0,0,0,0,0,0,0,0,0,0,0,0,0,0,0
16,Michoacán de Ocampo,050,Maravatío,19.889721645390065,-100.4219545460993,19.891674,-100.441667,0,0,0,0,0,0,0,0,0,0,0,0,0,0,0,0,0,0,0,0,0,0
16,Michoacán de Ocampo,051,Marcos Castellanos,20.034470976190477,-102.97029047619047,19.990238,-103.021504,0,0,0,0,0,0,0,0,0,0,0,0,0,0,0,0,0,0,0,0,0,0
16,Michoacán de Ocampo,052,Lázaro Cárdenas,18.067066093877553,-102.39825483673465,17.962334,-102.197981,1,1,2,2,2,3,4,4,6,6,9,10,11,14,14,14,15,19,20,20,22,23
16,Michoacán de Ocampo,053,Morelia,19.645979571428583,-101.25730240909101,19.703384,-101.192046,3,4,4,4,4,4,4,4,4,4,4,4,4,4,4,5,5,5,5,6,6,6
16,Michoacán de Ocampo,054,Morelos,19.99267572727272,-101.43623521212122,20.004252,-101.412386,0,0,0,0,0,0,0,0,0,0,0,0,0,0,0,0,0,0,0,0,0,0
16,Michoacán de Ocampo,055,Múgica,18.981298844827588,-102.1233903448276,19.028805,-102.086734,0,0,0,0,0,0,0,0,0,0,0,0,0,0,0,0,0,0,0,0,0,0
16,Michoacán de Ocampo,056,Nahuatzen,19.623550238095238,-101.90119057142857,19.654073,-101.917137,0,0,0,0,0,0,0,0,0,0,0,0,0,0,0,0,0,0,0,0,0,0
16,Michoacán de Ocampo,057,Nocupétaro,19.11127253529411,-101.21170957058825,19.043297,-101.162229,0,0,0,0,0,0,0,0,0,0,0,0,0,0,0,0,0,0,0,0,0,0
16,Michoacán de Ocampo,058,Nuevo Parangaricutiro,19.39187618421053,-102.1802580394737,19.416644,-102.12988,0,0,0,0,0,0,0,0,0,0,0,0,0,0,0,0,0,0,0,0,0,0
16,Michoacán de Ocampo,059,Nuevo Urecho,19.160561219512193,-101.86501204878049,19.165872,-101.868847,0,0,0,0,0,0,0,0,0,0,0,0,0,0,0,0,0,0,0,0,0,0
16,Michoacán de Ocampo,060,Numarán,20.271320900000003,-101.96391413333332,20.2549,-101.947197,0,0,0,0,0,0,0,0,0,0,0,0,0,0,0,0,0,0,0,0,0,0
16,Michoacán de Ocampo,061,Ocampo,19.584357926829266,-100.34098512195123,19.583848,-100.339282,0,0,0,0,0,0,0,0,0,0,0,0,0,0,0,0,0,0,0,0,0,1
16,Michoacán de Ocampo,062,Pajacuarán,20.134946666666668,-102.52613742857145,20.116894,-102.565513,0,0,0,0,0,0,0,0,0,0,0,0,0,0,0,0,0,0,0,0,0,0
16,Michoacán de Ocampo,063,Panindícuaro,20.009344805555557,-101.76003052777776,19.983959,-101.76146,0,0,0,0,0,0,0,0,0,0,0,0,0,0,0,0,0,0,0,0,0,0
16,Michoacán de Ocampo,064,Parácuaro,19.047838089999992,-102.22456134000004,19.015547,-102.206646,0,0,0,0,0,0,0,0,0,0,0,0,0,0,0,0,0,0,0,0,0,0
16,Michoacán de Ocampo,065,Paracho,19.6416345625,-102.05777140625,19.647297,-102.048468,0,0,0,0,0,0,0,0,0,0,0,0,0,0,0,0,0,0,0,0,0,0
16,Michoacán de Ocampo,066,Pátzcuaro,19.507866902912625,-101.58536992233014,19.513598,-101.610116,1,1,1,1,1,1,1,1,1,1,1,1,1,1,1,1,1,1,1,1,1,1
16,Michoacán de Ocampo,067,Penjamillo,20.137214393442623,-101.91170586885248,20.104468,-101.933671,0,0,0,0,0,0,0,0,0,0,0,0,0,0,0,0,0,0,0,0,0,0
16,Michoacán de Ocampo,068,Peribán,19.505009355140185,-102.42767339252336,19.520727,-102.416188,0,0,0,0,0,0,0,0,0,0,0,0,0,0,0,0,0,0,0,0,0,0
16,Michoacán de Ocampo,069,La Piedad,20.317294477611938,-102.0363245074627,20.34145,-102.022554,0,0,0,1,2,2,2,2,2,2,2,2,2,2,2,2,2,2,2,2,2,2
16,Michoacán de Ocampo,070,Purépero,19.906806,-101.99743287096777,19.909963,-102.006741,0,0,0,0,0,0,0,0,0,0,0,0,0,0,0,0,0,0,0,0,0,0
16,Michoacán de Ocampo,071,Puruándiro,20.11985161666667,-101.51833404999999,20.088665,-101.5152,0,0,0,0,0,0,0,0,0,0,0,0,0,0,0,0,0,0,0,0,0,0
16,Michoacán de Ocampo,072,Queréndaro,19.69286092105263,-100.84068084210526,19.810028,-100.883488,0,0,0,0,0,0,0,0,0,0,0,0,0,0,0,0,0,0,0,0,0,0
16,Michoacán de Ocampo,073,Quiroga,19.67145157142857,-101.54543914285716,19.663786,-101.524004,0,0,0,0,0,0,0,0,0,0,0,0,0,0,0,0,0,0,0,0,0,0
16,Michoacán de Ocampo,074,Cojumatlán de Régules,20.117396352941174,-102.8751035882353,20.118998,-102.851005,0,0,0,0,0,0,0,0,0,0,0,0,0,0,0,0,0,0,0,0,0,0
16,Michoacán de Ocampo,075,Los Reyes,19.65551250819672,-102.40739808196722,19.588974,-102.474679,0,0,0,0,0,0,0,0,0,0,0,0,0,0,0,0,0,0,0,0,0,0
16,Michoacán de Ocampo,076,Sahuayo,20.05776239534883,-102.75189088372093,20.057684,-102.716797,0,0,0,0,0,1,1,1,1,1,1,1,1,1,1,1,1,1,1,1,1,1
16,Michoacán de Ocampo,077,San Lucas,18.52906727835051,-100.74637113402066,18.366212,-100.662067,0,0,0,0,0,0,0,0,0,0,0,0,0,0,0,0,0,0,0,0,0,0
16,Michoacán de Ocampo,078,Santa Ana Maya,20.044739695652172,-101.04492273913043,20.008392,-101.021763,0,0,0,0,0,0,0,0,0,0,0,0,0,0,0,0,0,0,0,0,0,0
16,Michoacán de Ocampo,079,Salvador Escalante,19.370784117021287,-101.69766525531914,19.406085,-101.639798,0,0,0,0,0,0,0,0,0,0,0,0,0,0,0,0,0,0,0,0,0,0
16,Michoacán de Ocampo,080,Senguio,19.7548384,-100.33980849230768,19.733341,-100.352407,0,0,0,0,0,0,0,0,0,0,0,0,0,0,0,0,0,0,0,0,0,0
16,Michoacán de Ocampo,081,Susupuato,19.198063076923077,-100.40635667032964,19.248333,-100.4175,0,0,0,0,0,0,0,0,0,0,0,0,0,0,0,0,0,0,0,0,0,0
16,Michoacán de Ocampo,082,Tacámbaro,19.239401078048783,-101.44919864390246,19.235537,-101.457328,0,0,0,0,0,0,0,0,0,0,0,0,0,0,0,0,0,0,0,0,0,0
16,Michoacán de Ocampo,083,Tancítaro,19.309622558823524,-102.34908652941179,19.337498,-102.363034,0,0,0,0,0,0,0,0,0,0,0,0,0,0,0,0,0,0,0,0,0,0
16,Michoacán de Ocampo,084,Tangamandapio,19.90908728571429,-102.43641792857139,19.953995,-102.432801,0,0,0,0,0,0,0,0,0,0,0,0,0,0,0,0,0,0,0,0,0,0
16,Michoacán de Ocampo,085,Tangancícuaro,19.885258597560977,-102.23012206097563,19.888234,-102.208453,0,0,0,0,0,0,0,0,0,0,0,0,0,0,0,0,0,0,0,0,0,0
16,Michoacán de Ocampo,086,Tanhuato,20.285095347826086,-102.3391357826087,20.283811,-102.327641,0,0,0,0,0,0,0,0,0,0,0,0,0,0,0,0,0,0,0,0,0,0
16,Michoacán de Ocampo,087,Taretan,19.328122518518516,-101.90983548148145,19.334562,-101.917904,0,0,0,0,0,0,0,0,0,0,0,0,0,0,0,0,0,0,0,0,0,0
16,Michoacán de Ocampo,088,Tarímbaro,19.791667132812492,-101.14958878125007,19.795666,-101.176392,0,0,0,0,0,0,0,0,0,0,0,0,0,0,0,0,0,0,0,0,0,0
16,Michoacán de Ocampo,089,Tepalcatepec,19.06307155670103,-102.85063003092786,19.191367,-102.843708,0,0,0,0,0,0,0,0,0,0,0,0,0,0,0,0,0,0,0,0,0,0
16,Michoacán de Ocampo,090,Tingambato,19.494846388888888,-101.8640026111111,19.501894,-101.853476,0,0,0,0,0,0,0,0,0,0,0,0,0,0,0,0,0,0,0,0,0,0
16,Michoacán de Ocampo,091,Tingüindín,19.784137375,-102.50583995833334,19.738952,-102.483083,0,0,0,0,0,0,0,0,0,0,0,0,0,0,0,0,0,0,0,0,0,0
16,Michoacán de Ocampo,092,Tiquicheo de Nicolás Romero,19.080585767676776,-100.8221862962963,18.900489,-100.736454,0,0,0,0,0,0,0,0,0,0,0,0,0,0,0,0,0,0,0,0,0,0
16,Michoacán de Ocampo,093,Tlalpujahua,19.78079074626866,-100.19660713432836,19.805304,-100.173593,0,0,0,0,0,0,0,0,0,0,0,0,0,0,0,0,0,0,0,0,0,0
16,Michoacán de Ocampo,094,Tlazazalca,20.001375423076922,-102.07486865384615,19.971236,-102.056679,0,0,0,0,0,0,0,0,0,0,0,0,0,0,0,0,0,0,0,0,0,0
16,Michoacán de Ocampo,095,Tocumbo,19.620255588235292,-102.59875967058822,19.639606,-102.489147,0,0,0,0,0,0,0,0,0,0,0,0,0,0,0,0,0,0,0,0,0,0
16,Michoacán de Ocampo,096,Tumbiscatío,18.54218378431372,-102.52808834967317,18.524801,-102.375023,0,0,0,0,0,0,0,0,0,0,0,0,0,0,0,0,0,0,0,0,0,0
16,Michoacán de Ocampo,097,Turicato,18.957411614730876,-101.42296388951848,19.094969,-101.522465,0,0,0,0,0,0,0,0,0,0,0,0,0,0,0,0,0,0,0,0,0,0
16,Michoacán de Ocampo,098,Tuxpan,19.568070793103452,-100.4851752873563,19.567961,-100.463778,0,0,0,0,0,0,0,0,0,0,0,0,0,0,0,0,0,0,0,0,0,0
16,Michoacán de Ocampo,099,Tuzantla,19.243915529411755,-100.61781639495794,19.207606,-100.573064,0,0,0,0,0,0,0,0,0,0,0,0,0,0,0,0,0,0,0,0,0,0
16,Michoacán de Ocampo,100,Tzintzuntzan,19.60739327777778,-101.54747613888888,19.565515,-101.618104,1,1,1,1,1,1,1,1,1,2,2,2,2,2,2,2,2,2,2,2,2,2
16,Michoacán de Ocampo,101,Tzitzio,19.444541861333338,-100.907710408,19.418899,-100.907626,0,0,0,0,0,0,0,0,0,0,0,0,0,0,0,0,0,0,0,0,0,0
16,Michoacán de Ocampo,102,Uruapan,19.428015115755617,-102.09942743729907,19.420888,-102.062799,0,0,0,0,0,0,0,0,0,0,0,1,1,1,2,2,2,2,2,2,2,2
16,Michoacán de Ocampo,103,Venustiano Carranza,20.12590405,-102.66907545,20.115974,-102.652361,1,1,1,1,1,1,1,1,1,1,1,1,1,1,1,1,1,1,1,1,1,1
16,Michoacán de Ocampo,104,Villamar,19.962344381818177,-102.5979496181818,19.991487,-102.615154,0,0,0,0,0,0,0,0,0,0,0,0,0,0,0,0,0,0,0,0,0,0
16,Michoacán de Ocampo,105,Vista Hermosa,20.2826267,-102.45550415000002,20.273115,-102.473646,0,0,0,0,0,0,0,0,0,0,0,0,0,0,0,0,0,0,0,0,0,0
16,Michoacán de Ocampo,106,Yurécuaro,20.310263346153842,-102.24540450000002,20.341089,-102.282425,0,0,0,0,0,0,0,0,0,0,0,0,0,0,0,0,0,0,0,0,0,0
16,Michoacán de Ocampo,107,Zacapu,19.812776777777774,-101.8031045,19.818619,-101.79286,0,0,0,0,0,0,0,0,0,0,0,0,0,0,0,0,0,0,0,0,0,0
16,Michoacán de Ocampo,108,Zamora,20.02146306382979,-102.28854611347518,19.983579,-102.285958,0,0,0,0,0,0,0,0,0,0,0,0,0,0,1,1,1,1,1,1,1,1
16,Michoacán de Ocampo,109,Zináparo,20.171316294117645,-101.99855929411765,20.173189,-101.998774,0,0,0,0,0,0,0,0,0,0,0,0,0,0,0,0,0,0,0,0,0,0
16,Michoacán de Ocampo,110,Zinapécuaro,19.868567436893205,-100.74890957281552,19.860275,-100.827583,0,0,0,0,0,0,0,0,0,0,0,0,0,0,0,0,0,0,0,0,0,0
16,Michoacán de Ocampo,111,Ziracuaretiro,19.41353745,-101.9081501,19.448939,-101.889441,0,0,0,0,0,0,0,0,0,0,0,0,0,0,0,0,0,0,0,0,0,0
16,Michoacán de Ocampo,112,Zitácuaro,19.433232654970762,-100.35681309356727,19.43718,-100.357486,0,0,0,0,0,0,0,0,0,0,0,0,0,0,0,1,1,1,2,2,2,2
16,Michoacán de Ocampo,113,José Sixto Verduzco,20.27633885365854,-101.56247795121952,20.302184,-101.596856,0,0,0,0,0,0,0,0,0,0,0,0,0,0,0,0,0,0,0,0,0,0
17,Morelos,001,Amacuzac,18.59977086666667,-99.3725769111111,18.600002,-99.369514,0,0,0,0,0,0,0,0,0,0,0,0,0,0,0,0,0,0,0,0,0,0
17,Morelos,002,Atlatlahucan,18.93676982978723,-98.89507655319147,18.936271,-98.899175,0,1,1,1,1,1,2,2,2,2,2,2,2,2,2,2,2,2,2,2,2,2
17,Morelos,003,Axochiapan,18.517477591549294,-98.74672308450708,18.502406,-98.754079,0,0,0,0,0,0,0,0,0,0,0,0,0,0,0,0,0,0,0,0,0,0
17,Morelos,004,Ayala,18.725081919999994,-98.95142713714287,18.792179,-98.962599,0,0,0,0,0,0,0,0,0,0,0,0,0,0,0,0,0,0,0,0,0,0
17,Morelos,005,Coatlán del Río,18.731186,-99.44930673913042,18.744186,-99.434801,0,0,0,0,0,0,0,0,0,0,0,0,0,0,0,0,0,0,0,0,0,0
17,Morelos,006,Cuautla,18.821967791044774,-98.95213646268657,18.812788,-98.955265,0,0,0,0,0,0,0,0,1,2,2,2,2,2,2,2,4,4,4,5,7,7
17,Morelos,007,Cuernavaca,18.95607085507247,-99.2395286521739,18.921783,-99.234897,2,2,3,3,3,3,3,3,4,6,6,7,7,8,8,8,8,9,11,12,12,15
17,Morelos,008,Emiliano Zapata,18.8086342195122,-99.18554682926828,18.840984,-99.183243,0,0,0,0,0,0,0,0,0,0,0,0,0,0,0,0,0,0,0,0,0,1
17,Morelos,009,Huitzilac,19.030180194805197,-99.24741871428571,19.052983,-99.243566,0,0,0,0,0,0,0,0,0,0,0,0,0,0,0,0,0,0,1,1,1,1
17,Morelos,010,Jantetelco,18.702923977272732,-98.78259013636365,18.724801,-98.799084,0,0,0,0,0,0,0,0,0,0,0,0,0,0,0,0,0,0,0,0,0,0
17,Morelos,011,Jiutepec,18.879115068965522,-99.1504561034483,18.881974,-99.177198,0,0,0,0,0,1,1,1,1,2,2,2,2,2,2,2,2,2,3,3,3,3
17,Morelos,012,Jojutla,18.589231666666656,-99.22358672222225,18.616566,-99.181044,1,1,1,1,1,1,1,1,2,2,2,2,2,2,2,2,2,3,3,3,3,3
17,Morelos,013,Jonacatepec de Leandro Valle,18.664378900000003,-98.804961725,18.68069,-98.803223,0,0,0,0,0,0,0,0,0,0,0,0,0,0,0,0,0,0,0,0,0,0
17,Morelos,014,Mazatepec,18.71182619230769,-99.36508119230767,18.733184,-99.366972,0,0,0,0,0,0,0,0,0,0,1,1,1,1,1,1,1,1,1,1,1,1
17,Morelos,015,Miacatlán,18.794809097560982,-99.36285195121948,18.769983,-99.360265,0,0,0,0,0,0,0,0,0,0,1,1,1,1,1,1,1,1,1,1,1,1
17,Morelos,016,Ocuituco,18.88331511538462,-98.77952907692308,18.877693,-98.775698,0,0,0,0,0,0,0,0,0,0,0,0,0,0,0,1,1,1,1,1,1,1
17,Morelos,017,Puente de Ixtla,18.569688372093022,-99.29897512790697,18.616875,-99.323701,1,1,1,1,1,1,1,1,1,1,1,2,2,2,2,2,2,2,3,3,3,4
17,Morelos,018,Temixco,18.852159772727273,-99.25568370454545,18.845273,-99.224143,1,1,1,1,1,1,1,1,1,1,1,2,3,3,3,3,3,3,3,3,4,6
17,Morelos,019,Tepalcingo,18.603498823529407,-98.86927913725489,18.594736,-98.844357,0,0,0,0,0,0,0,0,0,0,0,0,0,0,0,0,0,1,2,2,2,2
17,Morelos,020,Tepoztlán,18.964638506329116,-99.09995730379745,18.986457,-99.101227,0,0,0,0,0,0,0,0,0,0,0,0,0,0,0,0,0,0,0,0,0,1
17,Morelos,021,Tetecala,18.7093684,-99.40544775,18.728967,-99.398583,0,0,0,0,0,0,0,0,0,0,0,0,0,0,0,0,0,0,0,0,0,0
17,Morelos,022,Tetela del Volcán,18.879020882352933,-98.71186137254901,18.893525,-98.730066,0,0,0,0,0,0,0,0,0,0,0,0,0,0,0,0,0,1,1,1,1,2
17,Morelos,023,Tlalnepantla,19.021738111111112,-98.96571933333331,19.007927,-98.997352,0,0,0,0,0,0,0,0,0,0,0,0,0,0,0,0,0,0,0,0,0,0
17,Morelos,024,Tlaltizapán de Zapata,18.707504043478263,-99.12675911956521,18.699155,-99.179513,0,0,0,0,0,0,0,0,0,0,0,0,0,0,0,0,0,0,0,0,0,0
17,Morelos,025,Tlaquiltenango,18.551873050847455,-99.11998299999999,18.63003,-99.162662,1,1,1,1,1,1,1,1,1,1,1,1,1,1,1,1,1,1,1,2,2,2
17,Morelos,026,Tlayacapan,18.9508162745098,-98.97625960784312,18.956617,-98.983118,0,0,0,0,0,0,0,0,0,0,0,0,0,0,0,0,0,0,0,0,0,0
17,Morelos,027,Totolapan,18.992766545454543,-98.92069990909091,18.987223,-98.921439,0,0,0,0,0,0,0,0,0,0,0,0,0,0,0,0,0,0,0,0,0,0
17,Morelos,028,Xochitepec,18.769978098901106,-99.23273993406593,18.781866,-99.231463,0,1,1,1,1,1,1,1,1,1,1,1,1,1,1,1,1,1,1,1,1,1
17,Morelos,029,Yautepec,18.88510314035088,-99.04402427192984,18.886062,-99.060754,1,1,1,1,1,1,1,1,1,1,1,1,1,1,1,1,1,1,1,1,1,1
17,Morelos,030,Yecapixtla,18.860530150537638,-98.87000563440866,18.88342,-98.868144,0,0,0,0,0,0,0,0,0,0,0,0,0,0,0,0,0,2,2,2,2,2
17,Morelos,031,Zacatepec,18.652254708333334,-99.20791487500001,18.655408,-99.194279,0,0,0,0,0,0,0,0,0,0,0,1,1,2,2,2,2,2,3,3,3,3
17,Morelos,032,Zacualpan de Amilpas,18.808564782608695,-98.75243295652176,18.814334,-98.751613,0,0,0,0,0,0,0,0,0,0,0,0,0,0,0,0,0,0,0,0,0,0
17,Morelos,033,Temoac,18.760804222222223,-98.77892922222222,18.772315,-98.778043,0,0,0,0,0,0,0,0,0,0,0,0,0,0,0,0,0,0,0,0,0,0
17,Morelos,034,Coatetelco,18.742796857142853,-99.31964300000001,18.730486,-99.327058,0,0,0,0,0,0,0,0,0,0,0,0,0,0,0,0,0,0,0,0,0,0
17,Morelos,035,Xoxocotla,18.680365566666662,-99.24971693333332,18.686573,-99.244895,0,0,0,0,0,0,0,0,0,0,0,0,0,0,0,0,0,0,0,0,0,0
18,Nayarit,001,Acaponeta,22.479025269035525,-105.32986155837567,22.489388,-105.360184,1,1,2,2,2,2,2,2,2,2,2,2,2,2,2,2,2,2,2,2,2,2
18,Nayarit,002,Ahuacatlán,21.049881588888887,-104.53410387777772,21.050587,-104.484664,0,0,0,0,0,0,0,0,0,0,0,0,0,0,0,0,0,0,0,0,0,0
18,Nayarit,003,Amatlán de Cañas,20.832013266666664,-104.41562599999997,20.807782,-104.405389,0,0,0,0,0,0,0,0,0,0,0,0,0,0,0,0,0,0,0,0,0,0
18,Nayarit,004,Compostela,21.14229833333334,-105.09667910705589,21.23753,-104.900597,0,0,0,0,0,0,0,0,0,0,0,0,0,0,0,0,0,0,0,0,0,0
18,Nayarit,005,Huajicori,22.77253538759689,-105.21864864341076,22.637261,-105.319985,0,0,0,0,0,0,0,0,0,0,0,0,0,0,0,0,0,0,0,0,0,0
18,Nayarit,006,Ixtlán del Río,21.03911011965813,-104.32891635042733,21.035055,-104.368911,0,0,0,0,0,0,0,0,0,0,0,0,0,0,0,0,0,0,0,0,0,0
18,Nayarit,007,Jala,21.181548263157904,-104.39734825000002,21.104821,-104.438217,0,0,0,0,0,0,0,0,0,0,1,1,1,1,1,1,2,2,2,2,2,2
18,Nayarit,008,Xalisco,21.397130863636363,-104.91241550000005,21.443687,-104.899736,0,0,0,0,0,0,0,0,0,0,0,0,0,0,0,0,0,0,0,0,0,0
18,Nayarit,009,Del Nayar,22.129517909313737,-104.66034993750011,22.251125,-104.517943,0,0,0,0,0,0,0,0,0,0,0,0,0,0,0,0,0,0,0,0,0,0
18,Nayarit,010,Rosamorada,22.07493639252337,-105.20784712149536,21.948638,-105.297784,0,0,0,0,0,0,0,0,0,0,0,0,0,0,0,0,0,0,0,0,0,0
18,Nayarit,011,Ruíz,21.984208770642194,-104.96352768807341,21.950253,-105.145057,0,0,0,0,0,0,0,0,0,0,0,0,0,0,0,0,0,0,0,0,0,0
18,Nayarit,012,San Blas,21.579938124137925,-105.32046643448273,21.541738,-105.286046,0,0,0,0,0,0,0,0,0,0,0,0,0,0,0,0,0,0,0,0,0,0
18,Nayarit,013,San Pedro Lagunillas,21.19944272916667,-104.738966875,21.221906,-104.75111,0,0,0,0,0,0,0,0,0,0,0,0,0,0,0,0,0,0,0,0,0,0
18,Nayarit,014,Santa María del Oro,21.3531702284264,-104.59610086294418,21.333189,-104.587207,0,0,0,0,0,0,0,0,0,0,0,0,0,0,0,0,0,0,0,0,0,0
18,Nayarit,015,Santiago Ixcuintla,21.813520861538453,-105.2450094384616,21.808336,-105.206044,0,0,0,0,0,0,0,0,0,0,0,0,0,0,0,1,1,1,1,1,1,1
18,Nayarit,016,Tecuala,22.365681936708867,-105.50965858860764,22.395041,-105.456034,0,0,0,0,0,0,0,0,0,0,0,0,0,0,0,0,0,0,0,0,0,0
18,Nayarit,017,Tepic,21.551953157434394,-104.87544665306123,21.507413,-104.893799,1,1,1,1,1,1,1,1,1,2,2,2,2,2,2,4,4,4,4,4,4,4
18,Nayarit,018,Tuxpan,21.946735734693874,-105.29058010204085,21.94479,-105.298087,1,1,1,1,1,1,1,1,1,1,1,1,1,1,1,2,2,2,2,2,2,2
18,Nayarit,019,La Yesca,21.55433641967211,-104.13527534535518,21.698936,-104.078711,0,0,0,0,0,0,0,0,0,0,0,0,0,0,0,0,0,0,0,0,0,0
18,Nayarit,020,Bahía de Banderas,20.807551892344495,-105.30612533253591,20.759907,-105.231701,1,1,1,1,1,1,1,1,1,1,1,1,1,1,1,1,1,1,1,1,1,2
19,Nuevo León,001,Abasolo,25.947982333333332,-100.40544262500002,25.945338,-100.399988,0,0,0,0,0,0,0,0,0,0,0,0,0,0,0,0,0,0,0,0,0,0
19,Nuevo León,002,Agualeguas,26.305595906542028,-99.64440065420564,26.310915,-99.539389,0,0,0,0,0,0,0,0,0,0,0,0,0,0,0,0,0,0,0,0,0,0
19,Nuevo León,003,Los Aldamas,26.11388379452055,-99.24079445205481,26.064143,-99.196733,0,0,0,0,0,0,0,0,0,0,0,0,0,0,0,0,0,0,0,0,0,0
19,Nuevo León,004,Allende,25.305625093023263,-100.0060084883721,25.2869,-100.008324,0,0,0,0,0,0,0,0,0,0,0,0,0,0,0,1,1,1,1,1,1,1
19,Nuevo León,005,Anáhuac,27.294877892445577,-100.12020841485283,27.240647,-100.132436,0,0,0,0,0,0,0,0,0,0,0,0,0,0,0,0,0,0,0,0,0,0
19,Nuevo León,006,Apodaca,25.79148110576924,-100.18195467307694,25.781294,-100.189228,0,0,0,0,0,0,0,0,0,0,0,0,0,0,0,1,2,2,2,2,2,2
19,Nuevo León,007,Aramberri,24.22138989539748,-99.8299726903765,24.323147,-99.914588,0,0,0,0,0,0,0,0,0,0,0,0,0,0,0,0,0,0,0,0,0,0
19,Nuevo León,008,Bustamante,26.55627101680672,-100.50615491596642,26.534664,-100.502706,0,0,0,0,0,0,0,0,0,0,0,0,0,0,0,0,0,0,0,0,0,0
19,Nuevo León,009,Cadereyta Jiménez,25.486677332589284,-99.95999963169638,25.591008,-100.001594,0,0,0,0,0,0,0,0,0,0,0,0,0,0,0,0,0,0,0,1,1,1
19,Nuevo León,010,El Carmen,25.894133102941172,-100.35203436764706,25.932228,-100.364122,0,0,0,0,0,0,0,0,0,0,0,0,0,0,0,0,0,0,0,0,0,0
19,Nuevo León,011,Cerralvo,26.098349050228315,-99.65400992694066,26.089869,-99.614733,0,0,0,0,0,0,0,0,0,0,0,0,0,0,0,0,0,0,0,0,0,0
19,Nuevo León,012,Ciénega de Flores,25.966580810000018,-100.17355493,25.952069,-100.168108,0,0,0,0,0,0,0,0,0,0,0,0,0,0,0,0,0,0,0,0,0,0
19,Nuevo León,013,China,25.51281557934509,-99.00605381234251,25.705914,-99.239317,0,0,0,0,0,0,0,0,0,0,0,0,0,0,0,0,0,0,0,0,0,0
19,Nuevo León,014,Doctor Arroyo,23.79891908670519,-100.28766892196528,23.674692,-100.182256,0,0,0,0,0,0,0,0,0,0,0,0,0,0,0,0,0,0,0,0,0,0
19,Nuevo León,015,Doctor Coss,25.96588288372093,-99.04805652906977,25.925897,-99.184372,0,0,0,0,0,0,0,0,0,0,0,0,0,0,0,0,0,0,0,0,0,0
19,Nuevo León,016,Doctor González,25.840607246808506,-99.83409360851061,25.858829,-99.941869,0,0,0,0,0,0,0,0,0,0,0,0,0,0,0,0,0,0,0,0,0,0
19,Nuevo León,017,Galeana,24.852007480544735,-100.37032911673147,24.826267,-100.077428,0,0,0,0,0,0,0,0,0,0,0,0,0,0,0,0,0,0,0,0,0,0
19,Nuevo León,018,García,25.810259098684213,-100.62528831578943,25.800492,-100.585469,0,0,0,0,0,0,0,0,0,0,0,0,0,0,0,0,0,0,0,0,0,0
19,Nuevo León,019,San Pedro Garza García,25.630821818181815,-100.3842840909091,25.665169,-100.402467,1,1,1,1,1,1,1,1,1,1,1,1,1,1,1,1,1,1,1,1,1,1
19,Nuevo León,020,General Bravo,25.807316644376876,-98.89897854407296,25.793297,-99.181233,0,0,0,0,0,0,0,0,0,0,0,0,0,0,0,0,0,0,0,0,0,0
19,Nuevo León,021,General Escobedo,25.82859297560976,-100.36804948780488,25.807986,-100.322642,1,1,1,1,1,1,1,1,1,1,1,1,1,1,1,1,1,1,1,1,1,2
19,Nuevo León,022,General Terán,25.271859697463743,-99.48485393840573,25.257186,-99.685814,0,0,0,0,0,0,0,0,0,0,0,0,0,0,0,0,0,0,0,0,0,0
19,Nuevo León,023,General Treviño,26.204207962406016,-99.4626432481202,26.226969,-99.484081,0,0,0,0,0,0,0,0,0,0,0,0,0,0,0,0,0,0,0,0,0,0
19,Nuevo León,024,General Zaragoza,23.934396453416145,-99.72728233540377,23.973261,-99.772392,0,0,0,0,0,0,0,0,0,0,0,0,0,0,0,0,0,0,0,0,0,0
19,Nuevo León,025,General Zuazua,25.889113566929133,-100.13250124409444,25.898153,-100.168147,0,0,0,0,0,0,0,0,0,0,0,0,0,0,0,0,0,0,0,0,0,0
19,Nuevo León,026,Guadalupe,25.681167846153848,-100.16653107692309,25.677325,-100.259897,0,0,0,0,0,0,0,0,0,0,0,0,0,0,0,0,0,0,0,0,0,0
19,Nuevo León,027,Los Herreras,25.910248018518494,-99.42123827160488,25.905606,-99.403297,0,0,0,0,0,0,0,0,0,0,0,0,0,0,0,0,0,0,0,0,0,0
19,Nuevo León,028,Higueras,25.98846789285714,-100.00325657142855,25.961956,-100.01435,0,0,0,0,0,0,0,0,0,0,0,0,0,0,0,0,0,0,0,0,0,0
19,Nuevo León,029,Hualahuises,24.88321227868852,-99.6700185491803,24.884642,-99.673228,0,0,0,0,0,0,0,0,0,0,0,0,0,0,0,0,0,0,0,0,0,0
19,Nuevo León,030,Iturbide,24.63543835135135,-99.85506756756756,24.725978,-99.905261,0,0,0,0,0,0,0,0,0,0,0,0,0,0,0,0,0,0,0,0,0,0
19,Nuevo León,031,Juárez,25.60200500671141,-100.11826717449667,25.646225,-100.090881,0,0,0,0,0,0,0,0,0,0,1,1,1,1,1,1,1,1,2,3,3,3
19,Nuevo León,032,Lampazos de Naranjo,27.01847621827412,-100.40645755837562,27.025312,-100.504324,0,0,0,0,0,0,0,0,0,0,0,0,0,0,0,0,0,0,0,0,0,0
19,Nuevo León,033,Linares,24.84996335762483,-99.56671004858295,24.859653,-99.567869,0,0,0,0,0,0,0,0,0,0,0,0,0,0,0,0,0,0,0,0,0,0
19,Nuevo León,034,Marín,25.860321544642858,-100.0132545178571,25.879302,-100.034049,0,0,0,0,0,0,0,0,0,0,0,0,0,0,0,0,0,0,0,0,0,0
19,Nuevo León,035,Melchor Ocampo,26.056574243243237,-99.52542786486488,26.058525,-99.542283,0,0,0,0,0,0,0,0,0,0,0,0,0,0,0,0,0,0,0,0,0,0
19,Nuevo León,036,Mier y Noriega,23.42662419047619,-100.1728165714286,23.423119,-100.119669,0,0,0,0,0,0,0,0,0,0,0,0,0,0,0,0,0,0,0,0,0,0
19,Nuevo León,037,Mina,26.211800618181822,-100.76088501818181,26.001256,-100.531844,0,0,0,0,0,0,0,0,0,0,0,0,0,0,0,0,0,0,0,0,0,0
19,Nuevo León,038,Montemorelos,25.1675566328725,-99.84475500768049,25.189253,-99.826958,0,0,0,0,0,0,0,0,0,0,0,0,0,0,0,0,0,0,0,0,0,0
19,Nuevo León,039,Monterrey,25.566838230769232,-100.27696361538463,25.664697,-100.310892,1,1,1,1,1,2,2,2,2,2,2,3,3,3,4,4,4,6,6,6,7,8
19,Nuevo León,040,Parás,26.525143779874206,-99.5820467798742,26.498539,-99.525422,0,0,0,0,0,0,0,0,0,0,0,0,0,0,0,0,0,0,0,0,0,0
19,Nuevo León,041,Pesquería,25.75234269672133,-100.02154710245901,25.783258,-100.053678,0,0,0,0,0,0,0,0,0,0,0,0,0,0,0,0,0,1,1,1,1,2
19,Nuevo León,042,Los Ramones,25.656687578199037,-99.60261856872036,25.696392,-99.624031,0,0,0,0,0,0,0,0,0,0,0,0,0,0,0,0,0,0,0,0,0,0
19,Nuevo León,043,Rayones,25.095548403669724,-100.13000832110092,25.018122,-100.073214,0,0,0,0,0,0,0,0,0,0,0,0,0,0,0,0,0,0,0,0,0,0
19,Nuevo León,044,Sabinas Hidalgo,26.503944519230778,-100.11382206153846,26.498369,-100.181147,0,0,0,0,0,0,0,0,0,0,0,0,0,0,0,0,0,0,0,0,0,0
19,Nuevo León,045,Salinas Victoria,26.06980561012655,-100.27776220506335,25.959567,-100.291506,0,0,0,0,0,0,0,0,0,0,0,0,0,0,0,0,0,0,0,0,0,0
19,Nuevo León,046,San Nicolás de los Garza,25.755253,-100.289586,25.755253,-100.289586,1,1,1,1,1,1,1,1,1,1,1,2,2,2,2,2,2,2,2,2,2,2
19,Nuevo León,047,Hidalgo,25.986543106382978,-100.45210604255321,25.97565,-100.446894,0,0,0,0,0,0,0,0,0,0,0,0,0,0,0,0,0,0,0,0,0,0
19,Nuevo León,048,Santa Catarina,25.609436693069302,-100.48565889108909,25.674364,-100.461747,0,0,0,0,0,0,0,0,0,0,0,0,0,0,0,0,0,0,0,0,0,0
19,Nuevo León,049,Santiago,25.41111696103895,-100.186201952381,25.4271,-100.153011,0,0,0,0,0,0,0,0,0,0,0,0,0,0,0,0,0,0,0,0,0,0
19,Nuevo León,050,Vallecillo,26.561208996108956,-99.88170512062257,26.659673,-99.989579,0,0,0,0,0,0,0,0,0,0,0,0,0,0,0,0,0,0,0,0,0,0
19,Nuevo León,051,Villaldama,26.469350043165473,-100.38577866906473,26.498225,-100.424561,0,0,0,0,0,0,0,0,0,0,0,0,0,0,0,0,0,0,0,0,0,0
20,Oaxaca,001,Abejones,17.435752,-96.608174,17.435752,-96.608174,0,0,0,0,0,0,0,0,0,0,0,0,0,0,0,0,0,0,0,0,0,0
20,Oaxaca,002,Acatlán de Pérez Figueroa,18.481975180790965,-96.52712418644066,18.513523,-96.531845,0,0,0,0,0,0,0,0,0,0,0,0,0,0,0,0,0,0,0,0,0,0
20,Oaxaca,003,Asunción Cacalotepec,17.03568476923077,-95.93342361538461,17.035264,-95.956562,0,0,0,0,0,0,0,0,0,0,0,0,0,0,0,0,0,0,0,0,0,0
20,Oaxaca,004,Asunción Cuyotepeji,17.924517833333333,-97.67905166666667,17.930901,-97.674353,0,0,0,0,0,0,0,0,0,0,0,0,0,0,0,0,0,0,0,0,0,0
20,Oaxaca,005,Asunción Ixtaltepec,16.54048701886792,-95.03323809433962,16.50384,-95.057045,0,0,0,0,0,0,0,0,0,0,0,0,0,0,0,0,0,0,0,0,0,0
20,Oaxaca,006,Asunción Nochixtlán,17.436910547619057,-97.18475121428571,17.458936,-97.225199,0,0,0,0,0,0,0,0,0,0,0,0,0,0,0,0,0,0,0,0,0,0
20,Oaxaca,007,Asunción Ocotlán,16.7571825,-96.72208900000001,16.759179,-96.721326,0,0,0,0,0,0,0,0,0,0,0,0,0,0,0,0,0,0,0,0,0,0
20,Oaxaca,008,Asunción Tlacolulita,16.242918500000002,-95.7497885,16.300263,-95.726305,0,0,0,0,0,0,0,0,0,0,0,0,0,0,0,0,0,0,0,0,0,0
20,Oaxaca,009,Ayotzintepec,17.71814842857143,-96.1427335714286,17.676709,-96.133271,0,0,0,0,0,0,0,0,0,0,0,0,0,0,0,0,0,0,0,0,0,0
20,Oaxaca,010,El Barrio de la Soledad,16.80092960655738,-95.04211914754099,16.801347,-95.079486,0,0,0,0,0,0,0,0,0,0,0,0,0,0,0,0,0,0,0,0,0,0
20,Oaxaca,011,Calihualá,17.5407646,-98.2672984,17.532858,-98.278376,0,0,0,0,0,0,0,0,0,0,0,0,0,0,0,0,0,0,0,0,0,0
20,Oaxaca,012,Candelaria Loxicha,15.92525159550562,-96.51866140449438,15.926334,-96.491919,0,0,0,0,0,0,0,0,0,0,0,0,0,0,0,0,0,0,0,0,0,0
20,Oaxaca,013,Ciénega de Zimatlán,16.8927685,-96.76845666666668,16.897088,-96.766618,0,0,0,0,0,0,0,0,0,0,0,0,0,0,0,0,0,0,0,0,0,0
20,Oaxaca,014,Ciudad Ixtepec,16.573406956521744,-95.11091789130437,16.567698,-95.098713,0,0,0,0,0,0,0,0,0,0,0,0,0,0,0,0,0,0,0,0,0,0
20,Oaxaca,015,Coatecas Altas,16.523423529411765,-96.62202811764706,16.536759,-96.664981,0,0,0,0,0,0,0,0,0,0,0,0,0,0,0,0,0,0,0,0,0,0
20,Oaxaca,016,Coicoyán de las Flores,17.22557257142857,-98.22049452380952,17.272898,-98.276094,0,0,0,0,0,0,0,0,0,0,0,0,0,0,0,0,0,0,0,0,0,0
20,Oaxaca,017,La Compañía,16.573298500000003,-96.83885491666668,16.58664,-96.804016,0,0,0,0,0,0,0,0,0,0,0,0,0,0,0,0,0,0,0,0,0,0
20,Oaxaca,018,Concepción Buenavista,17.957819100000002,-97.42745814999998,17.878533,-97.400233,0,0,0,0,0,0,0,0,0,0,0,0,0,0,0,0,0,0,0,0,0,0
20,Oaxaca,019,Concepción Pápalo,17.85423464705882,-96.84999505882354,17.88523,-96.876929,0,0,0,0,0,0,0,0,0,0,0,0,0,0,0,0,0,0,0,0,0,0
20,Oaxaca,020,Constancia del Rosario,17.059782285714284,-97.99514264285712,17.037822,-97.941458,0,0,0,0,0,0,0,0,0,0,0,0,0,0,0,0,0,0,0,0,0,0
20,Oaxaca,021,Cosolapa,18.584299763157894,-96.66283113157894,18.601787,-96.682386,0,0,0,0,0,0,0,0,0,0,0,0,0,0,0,0,0,0,0,0,0,0
20,Oaxaca,022,Cosoltepec,18.139833333333335,-97.81462533333335,18.141977,-97.790672,0,0,0,0,0,0,0,0,0,0,0,0,0,0,0,0,0,0,0,0,0,0
20,Oaxaca,023,Cuilápam de Guerrero,17.001395676470587,-96.7861792352941,16.996001,-96.780591,0,0,0,0,0,0,0,0,0,0,0,0,0,0,0,0,0,0,0,0,0,0
20,Oaxaca,024,Cuyamecalco Villa de Zaragoza,17.966069222222224,-96.83826872222221,17.951172,-96.848405,0,0,0,0,0,0,0,0,0,0,0,0,0,0,0,0,0,0,0,0,0,0
20,Oaxaca,025,Chahuites,16.272821,-94.1990448,16.287609,-94.195824,0,0,0,0,0,0,0,0,0,0,0,0,0,0,0,0,0,0,0,0,0,0
20,Oaxaca,026,Chalcatongo de Hidalgo,16.993539678571427,-97.55024514285715,17.032029,-97.570989,0,0,0,0,0,0,0,0,0,0,0,0,0,0,0,0,0,0,0,0,0,0
20,Oaxaca,027,Chiquihuitlán de Benito Juárez,17.991368625,-96.75638531250002,17.995439,-96.745448,0,0,0,0,0,0,0,0,0,0,0,0,0,0,0,0,0,0,0,0,0,0
20,Oaxaca,028,Heroica Ciudad de Ejutla de Crespo,16.579961174999998,-96.73080279999999,16.564276,-96.731901,0,0,0,0,0,0,0,0,0,0,0,0,0,0,0,0,0,0,0,0,0,0
20,Oaxaca,029,Eloxochitlán de Flores Magón,18.185834035714286,-96.87705835714287,18.176881,-96.876091,0,0,0,0,0,0,0,0,0,0,0,0,0,0,0,0,0,0,0,0,0,0
20,Oaxaca,030,El Espinal,16.469439981651373,-95.03995289908258,16.48571,-95.042836,0,0,0,0,0,0,0,0,0,0,0,0,0,0,0,0,0,0,0,0,0,0
